,idLV,SG_UF,CD_LOCALIDADE_TSE,NM_LOCALIDADE,NR_ZONA,NR_LOCVOT,NM_LOCVOT,DS_ENDERECO,DS_BAIRRO,NR_CEP,n_locs,street_name,street_number,locality,postal_code,sub_locality,provider,latitude,longitude,dispersion,clusters_count,providers_count,levenshtein_match_street_name
1,74039481015,PR,74039,ADRIANÓPOLIS,48,1015,"COLEGIO ESTADUAL SANTA BARBARA","PRACA ANTONIO DIAS AGIBERT, S/N",CENTRO,83490000,8,"Rua Waldomiro Dias Agibert",,Adrianópolis,83490000,Adrianópolis,here_geocoder,-24.65604,-48.99185,0.16557738830674,2,2,0.48648648648649
2,74039481023,PR,74039,ADRIANÓPOLIS,48,1023,"COLÉGIO ESTADUAL SELBMANN","RUA IGUAÇU, S/N","VILA MOTA",83490000,4
3,74039481031,PR,74039,ADRIANÓPOLIS,48,1031,"COLÉGIO ESTADUAL PORTO NOVO","RUA DONAISABEL, 236","PORTO NOVO",83490000,5
4,74039481040,PR,74039,ADRIANÓPOLIS,48,1040,"ESCOLA RURAL MUNICIPAL TEREZA BACIL DE SOUZA","ESTRADA DA PLUMBUM,KM 05","BARRA GRANDE",83490000,4
5,74039481058,PR,74039,ADRIANÓPOLIS,48,1058,"ESCOLA MUNICIPAL VALDINEI JOSÉ ALVES (EPITÁCIO PESSOA)","ESTRADA DO PERAU, S/N","EPITACIO PESSOA",83490000,2
6,740551441015,PR,74055,"AGUDOS DO SUL",144,1015,"COLEGIO ESTADUAL RUI BARBOSA","RUA RUI BARBOSA, 11",CENTRO,83850000,10,"Rua Rui Barbosa",11,"Agudos do Sul",83850000,"Agudos do Sul",here_geocoder,-25.9859251,-49.3342351,0.00011293234361706,2,2,0.6
7,740551441023,PR,74055,"AGUDOS DO SUL",144,1023,"ESCOLA RURAL MUNICIPAL MIGUEL JUNIOR DE SOUZA","ESTRADA PRINCIPAL",QUEIMADOS,83850000,2
8,740551441031,PR,74055,"AGUDOS DO SUL",144,1031,"ESCOLA RURAL MUNICIPAL VICENTE MACHADO","PR 419, KM 21","LAGOA DOS SOUZA",83850000,2,PR-419,,"Agudos do Sul",83850000,,here_geocoder,-25.96586,-49.344,0.024255977990816,2,2,0.21428571428571
9,740551441040,PR,74055,"AGUDOS DO SUL",144,1040,"ESCOLA RURAL MUNICIPAL MANOEL RIBAS","ESTRADA PRINCIPAL, S/N","TAQUARA LISA",83850000,2
10,740551441082,PR,74055,"AGUDOS DO SUL",144,1082,"ESCOLA RURAL MUNICIPAL DOM PEDRO II (DESATIVADA)","PAVÃO - TROPERABA",TROPERABA,83850000,1
11,740551441090,PR,74055,"AGUDOS DO SUL",144,1090,"ESCOLA RURAL MUNICIPAL VITAL BRASIL","ESTRADA PRINCIPAL",TABOAO,83850000,2,"Estrada Principal Taboao",,"Agudos do Sul",83850000,,google_maps,-25.9586642,-49.3645931,0,1,1,1
12,740551441112,PR,74055,"AGUDOS DO SUL",144,1112,"ESCOLA RURAL MUNICIPAL BARAO DO RIO BRANCO (DESATIVADA)","ESTRADA PRINCIPAL",PINHAL,80000000,1
13,740551441120,PR,74055,"AGUDOS DO SUL",144,1120,"ESCOLA RURAL MUNICIPAL EMILIANO PERNETA(DESATIVADA)","ESTRADA PRINCIPAL TARUMA",TARUMA,80000000,1
14,740551441147,PR,74055,"AGUDOS DO SUL",144,1147,"ESCOLA RURAL MUNICIPAL CARLOS GOMES (DESATIVADA)","ESTRADA PRINCIPAL (PALMITO DE BAIXO)",PALMITO,83850000,1
15,740551441155,PR,74055,"AGUDOS DO SUL",144,1155,"ESCOLA RURAL MUNICIPAL DUQUE DE CAXIAS(DESATIVADA)","ESTRADA PRINCIPAL PAVAOZINHO",PAVAOZINHO,80000000,1
16,740551441163,PR,74055,"AGUDOS DO SUL",144,1163,"ESCOLA RURAL MUNICIPAL MONTEIRO LOBATO","RUA PRINCIPAL, S/N","LOCALIDADE DE LEAO",83850000,2
17,740551441171,PR,74055,"AGUDOS DO SUL",144,1171,"ESCOLA RURAL MUNICIPAL GETÚLIO VARGAS","ESTRADA PRINCIPAL DO PAPANDUVA",PAPANDUVA,83850000,1
18,740711711015,PR,74071,"ALMIRANTE TAMANDARÉ",171,1015,"ESCOLA ESTADUAL PROFESSORA JACI REAL PRADO DE OLIVEIRA","RUA DOMINGOS SCUCATO, 998","JARDIM MONTE SANTO",83501020,9,"Rua Domingos Scucato",998,"Almirante Tamandaré",83501020,"Jardim Monte Santo",google_maps,-25.3136939,-49.2899873,0.10656914987845,1,3,0.46511627906977
19,740711711023,PR,74071,"ALMIRANTE TAMANDARÉ",171,1023,"ESCOLA MUNICIPAL ALMIRANTE TAMANDARE","RUA JOSE CARLOS COLODEL, 139","VILA SANTA TEREZINHA",83501140,5,"Rua José Carlos Colodel",139,"Almirante Tamandaré",83501140,"Vila Santa Terezinha",google_maps,-25.3145326,-49.299287,8.3135641224388E-5,1,3,0.4375
20,740711711031,PR,74071,"ALMIRANTE TAMANDARÉ",171,1031,"ESCOLA ESTADUAL AYRTON SENNA DA SILVA","AVENIDA EMILIO JOHNSON, 1172","VILA SANTA TEREZINHA",83501000,9,"Avenida Emílio Johnson",1172,"Almirante Tamandaré",83501,"Vila Santa Terezinha",google_maps,-25.307859,-49.2945688,0.0031695960908904,1,3,0.41666666666667
21,740711711040,PR,74071,"ALMIRANTE TAMANDARÉ",171,1040,"ESCOLA MUNICIPAL SÃO FRANCISCO","RUA JOSÉ REAL PRADO, 1573","JARDIM SÃO FRANCISCO",83501470,5,"Rua José Real Prado",1573,"Almirante Tamandaré",83501470,"Colônia Antônio Prado",here_geocoder,-25.3138289,-49.2663178,3.2440171937793E-5,3,2,0.43478260869565
22,740711711074,PR,74071,"ALMIRANTE TAMANDARÉ",171,1074,"ESCOLA ESTADUAL JARDIM PARAISO","RUA PEDRO POLAK, 01","JARDIM PARAISO",83512090,8,"Rua Pedro Polak",1,"Almirante Tamandaré",83512090,"Jardim Paraiso",google_maps,-25.315779,-49.3093916,0.052380007808773,1,3,0.45454545454545
23,740711711082,PR,74071,"ALMIRANTE TAMANDARÉ",171,1082,"ESCOLA MUNICIPAL JOAO BATISTA DE SIQUEIRA","RUA PEDRO TEIXEIRA ALVES -  SN","MATO DENTRO",83513190,3,"Rua Pedro Teixeira Alves",,"Almirante Tamandaré",83513190,"Mato Dentro",here_geocoder,-25.2957,-49.29837,0.00013954339286536,2,2,0.61538461538462
24,740711711090,PR,74071,"ALMIRANTE TAMANDARÉ",171,1090,"ESCOLA MUNICIPAL LOURENCO ANGELO BUZATTO","RUA SAO BENTO, 435","JARDIM MONTE SANTO",83501360,6,"Rua São Bento",435,"Almirante Tamandaré",83501360,"Jardim Monte Santo",google_maps,-25.3158826,-49.2789402,0.067319307112078,1,3,0.30555555555556
25,740711711104,PR,74071,"ALMIRANTE TAMANDARÉ",171,1104,"ESCOLA MUNICIPAL PROFESSORA MIRTA NAVES PROSDOCIMO","RUA PLACIDO GOMES, 150",BONFIM,83507050,3,"Rua Plácido Gomes",150,"Almirante Tamandaré",83507,Bonfim,google_maps,-25.3438704,-49.2851234,0.031775111538527,1,3,0.53571428571429
26,740711711112,PR,74071,"ALMIRANTE TAMANDARÉ",171,1112,"COLÉGIO ESTADUAL EDMAR WRIGTH","AVENIDA FRANCISCO KRUGER, 5780",CACHOEIRA,83504490,12,"Avenida Francisco Krüger",5780,"Almirante Tamandaré",83504490,Cachoeira,here_geocoder,-25.34238,-49.26845,0.0006388916975258,1,3,0.56410256410256
27,740711711120,PR,74071,"ALMIRANTE TAMANDARÉ",171,1120,"ESCOLA ESTADUAL ROSA FREDERICA JOHNSON","RUA JOAO ANTUNES DE LARA, 1580","VILA PROSDÓCIMO",83506070,6,"Rua João Antunes de Lara",1580,"Almirante Tamandaré",83506070,"Vila Prosdocimo",google_maps,-25.3426732,-49.2680679,0,2,1,0.47826086956522
28,740711711139,PR,74071,"ALMIRANTE TAMANDARÉ",171,1139,"ESCOLA MUNICIPAL ALEXANDRE PERUSSI","R. PROFESSOR ANTONIO RODRIGUES DIAS, 904",BONFIM,83506000,7,"Rua Professor Antônio Rodrigues Dias",904,"Almirante Tamandaré",83506000,Bonfim,here_geocoder,-25.34381,-49.27628,0.00062195945720327,1,3,0.67391304347826
29,740711711147,PR,74071,"ALMIRANTE TAMANDARÉ",171,1147,"ESCOLA MUNICIPAL JARDIM ROMA","RUA CAMPO LARGO, 1031","JARDIM ROMA",83504010,7,"Rua Campo Largo",480,"Almirante Tamandaré",83504010,"Jardim Roma",google_maps,-25.3258848,-49.2731868,0.076827762997797,2,3,0.46875
30,740711711155,PR,74071,"ALMIRANTE TAMANDARÉ",171,1155,"ESCOLA ESTADUAL PAPA JOAO PAULO I","AV. SAO JORGE , 999","PARQUE SÃO JORGE",83503180,13,"Rua São Jorge",999,"Almirante Tamandaré",83503180,"Parque Sao Jorge",google_maps,-25.334522,-49.2814949,0,3,1,0.29411764705882
31,740711711163,PR,74071,"ALMIRANTE TAMANDARÉ",171,1163,"ESCOLA MUNICIPAL ANTONIO PRADO","R ALBERTO PIEKAS, 100","COLÔNIA ANTÔNIO PRADO",83504520,1,"Rua José Valdir Piekas",100,"Almirante Tamandaré",83502330,"Colônia Antônio Prado",here_geocoder,-25.3185179,-49.2627145,3.5581334745433E-5,1,2,0.26086956521739
32,740711711171,PR,74071,"ALMIRANTE TAMANDARÉ",171,1171,"ESCOLA ESTADUAL JARDIM APUCARANA","RUA INDAIAL, 60","JARDIM APUCARANA",83505100,6,"Rua Indaial",60,"Almirante Tamandaré",83504670,"Jardim Apucarana",google_maps,-25.340767,-49.2523079,0.007508988506051,1,3,0.35483870967742
33,740711711180,PR,74071,"ALMIRANTE TAMANDARÉ",171,1180,"ESCOLA ESTADUAL JARDIM GRAZIELE","RUA AUSTRIA , SN","JARDIM GRAZIELE",83505300,7,"Rua Áustria",s/n,"Almirante Tamandaré",83505300,"Jardim Grazilela",google_maps,-25.3434491,-49.246374,0.0025249086821372,1,3,0.3
34,740711711198,PR,74071,"ALMIRANTE TAMANDARÉ",171,1198,"ESCOLA ESTADUAL  VILA AJAMBI","RUA ALFREDO VALENTE, 428","VILA AJAMBI",83504000,9,"Rua Professor Alfredo Valente",428,"Almirante Tamandaré",83504000,"Vila Ajambi",google_maps,-25.3324405,-49.2661395,5.9131865118617E-5,1,3,0.31428571428571
35,740711711201,PR,74071,"ALMIRANTE TAMANDARÉ",171,1201,"COLEGIO ESTADUAL MARIA LOPES DE PAULA","RUA ESTADOS UNIDOS, 133","VILA GRAZIELA",83505650,10,"Rua Estados Unidos",133,"Almirante Tamandaré",83505650,"Campina do Arruda",google_maps,-25.347571,-49.246483,0.00036284123139288,2,3,0.5
36,740711711252,PR,74071,"ALMIRANTE TAMANDARÉ",171,1252,"ESCOLA RURAL MUNICIPAL MARIA CAVASSIM MANFRON","EST PRINCIPAL DA CAPIVARA KM 10 ,  SN","CAPIVARA DOS MANFRON",83501000,1
37,740711711295,PR,74071,"ALMIRANTE TAMANDARÉ",171,1295,"ESCOLA MUNICIPAL VEREADOR VICENTE KOCHANY","AV VEREADOR WADISLAU BUGALSKI, 4230","LAMENHA GRANDE",83507270,13,"Rua Vereador Wadislau Bugalski",4230,"Almirante Tamandaré",83511,Botiatuba,google_maps,-25.3445018,-49.2990047,0.00060039713332171,3,2,0.51851851851852
38,740711711309,PR,74071,"ALMIRANTE TAMANDARÉ",171,1309,"COLONIA GABRIELA","RUA DAS LARANJEIRAS ,  SN",CENTRO,83505300,1,"Rua das Laranjeiras",,"Almirante Tamandaré",83508702,"Colônia Santa Gabriela",here_geocoder,-25.36649,-49.29583,0,1,1,0.6551724137931
39,740711711317,PR,74071,"ALMIRANTE TAMANDARÉ",171,1317,"ESCOLA RURAL MUNICIPAL OSVALDO AVELINO TREVISAN","ESTRADA DO MARMELEIRO SN",MARMELEIRO,83501970,2
40,740711711430,PR,74071,"ALMIRANTE TAMANDARÉ",171,1430,"COLEGIO ESTADUAL PROFESSOR ALBERTO KRAUSE","RUA ROBERTO DRECHELER, 22",TANGUÁ,83508010,12,"Rua Roberto Drecheler",22,"Almirante Tamandaré",83508010,Tanguá,here_geocoder,-25.3718575,-49.3065272,2.0549694896709E-5,2,2,0.65625
41,740711711457,PR,74071,"ALMIRANTE TAMANDARÉ",171,1457,"ESCOLA ESTADUAL PROFESSORA ANGELA SANDRI TEIXEIRA","RODOVIA DOS MINERIOS, 21",TRANQUEIRA,83514000,7,"Rodovia dos Minérios",21,"Almirante Tamandaré",83514,Tranqueira,google_maps,-25.3123934,-49.3035593,0.075512621765448,5,2,0.52941176470588
42,740711711473,PR,74071,"ALMIRANTE TAMANDARÉ",171,1473,"ESCOLA MUNICIPAL CLARA NADIR BUZATO","RUA NILO CROPOLATO MATIAS, SN",AREIAS,83514210,3,"Rua Nilo Cropolato Matias",,"Almirante Tamandaré",83514210,Areias,here_geocoder,-25.24633,-49.2964399,3.6311002512334E-7,1,2,0.71428571428571
43,740711711490,PR,74071,"ALMIRANTE TAMANDARÉ",171,1490,"ESCOLA RURAL MUNICIPAL JOÃO JOHNSON","RUA FRANCISCO DE LARA VAZ,  SN","MORRO AZUL",83513167,1,"Rua Francisco de Lara Vaz",,"Almirante Tamandaré",83513167,"Morro Azul",here_geocoder,-25.27174,-49.33522,8.2406126829563E-5,2,2,0.64102564102564
44,740711711503,PR,74071,"ALMIRANTE TAMANDARÉ",171,1503,"ESCOLA MUNICIPAL ALVARENGA PEIXOTO","RUA CEL JOAO CANDIDO DE OLIVEIRA, 126",CENTRO,83501010,7,"Rua Coronel João Cândido de Oliveira",126,"Almirante Tamandaré",83501010,Centro,google_maps,-25.306886,-49.294465,0.0056858892515783,1,3,0.68085106382979
45,740711711511,PR,74071,"ALMIRANTE TAMANDARÉ",171,1511,"ESCOLA MUNICIPAL PROFESSOR ANTONIO RODRIGUES DIAS","RUA JOSE LUIZ FALCADE, 58","JARDIM NOVOS HORIZONTES",83501000,1,"Rua Luiz Júlio Falcade",58,"Almirante Tamandaré",83502170,"Colônia Antônio Prado",here_geocoder,-25.3141002,-49.2653038,0,1,1,0.29166666666667
46,740711711520,PR,74071,"ALMIRANTE TAMANDARÉ",171,1520,"COLEGIO ESTADUAL TANCREDO NEVES","RUA RIO NEGRO, 46","LAMENHA GRANDE",83507400,5,"Rua Rio Negro",57,"Almirante Tamandaré",83507400,"Lamenha Grande",here_geocoder,-25.34738,-49.2963,0.036235094427644,1,3,0.41935483870968
47,740711711538,PR,74071,"ALMIRANTE TAMANDARÉ",171,1538,"ESC. MUN. PREF. EURIPEDES DE SIQUEIRA, ED. INF E FUNDAMENTAL","RUA LEONARDO MURASKI, 238","JARDIM PARAISO",83512140,2,"Rua Leonardo Muraski",238,"Almirante Tamandaré",83512140,"Jardim Paraiso",google_maps,-25.3104846,-49.3117042,0.00059384792809488,1,3,0.51282051282051
48,740711711546,PR,74071,"ALMIRANTE TAMANDARÉ",171,1546,"ESCOLA MUNICIPAL PROFESSORA CLAIR DO ROCIO SANDRI","ROBERTO DRECHELER, 300",TANGUÁ,83508010,4,"Rua Roberto Drecheler",300,"Almirante Tamandaré",83508010,Tanguá,here_geocoder,-25.3723926,-49.3038831,0.051473207752297,1,3,0.44827586206897
49,740711711562,PR,74071,"ALMIRANTE TAMANDARÉ",171,1562,"ESCOLA RURAL MUNICIPAL LUIZ EDUARDO CUMIM","RUA ANTONIO DE OLIVEIRA CRUZ, 82",AREIAS,83514620,4,"Rua Antônio de Oliveira Cruz",82,"Almirante Tamandaré",83514620,Areias,here_geocoder,-25.2353912,-49.3006262,0.00085273065498391,1,3,0.68421052631579
50,740711711570,PR,74071,"ALMIRANTE TAMANDARÉ",171,1570,"COLEGIO ESTADUAL AMBROSIO BINI","RUA BERTOLINA KENDRI DE OLIVEIRA","VILA SANTA TEREZINHA",83501150,2,"Rua Bertolina Kendrick de Oliveira",,"Almirante Tamandaré",83501150,"Vila Santa Terezinha",google_maps,-25.312063,-49.2952801,2.963600805096E-5,1,3,0.56603773584906
51,740711711589,PR,74071,"ALMIRANTE TAMANDARÉ",171,1589,"ESCOLA MUNICIPAL BORTOLO LOVATO","FREDERICO DOMINGOS GULIN",TRANQUEIRA,85530000,1,"Rua Frederico Domingos Gulin",,"Almirante Tamandaré",83514150,Tanqueira,here_geocoder,-25.25403,-49.29792,0.17262162900213,1,3,0.57142857142857
52,740711711597,PR,74071,"ALMIRANTE TAMANDARÉ",171,1597,"ESCOLA MUNICIPAL ARCO IRIS-CAIC","RUA PIRAQUARA","JARDIM ROMA",83504110,1,"Rua Piraquara",,"Almirante Tamandaré",83504110,"Jardim Roma",google_maps,-25.3292285,-49.2679307,9.6468786678953E-6,1,3,0.52
53,743221441015,PR,74322,"FAZENDA RIO GRANDE",144,1015,"COLÉGIO ESTADUAL JORGE ANDRIGUETTO","RUA CESAR CARELLI, S/N",PIONEIROS,83833054,14,"Rua César Carelli",,"Fazenda Rio Grande",,Pioneiros,google_maps,-25.6448779,-49.3184406,0.10403018043169,1,3,0.48387096774194
54,743221441031,PR,74322,"FAZENDA RIO GRANDE",144,1031,"ESCOLA RURAL MUNICIPAL FRANCISCO QUIRINO MACHADO","AV. JOÃO QUIRINO LEAL, 392 - COMUNIDADE SÃO SEBASTIÃO",VENEZA,83824148,3
55,743221441058,PR,74322,"FAZENDA RIO GRANDE",144,1058,"ESCOLA RURAL MUNICIPAL SENADOR ALÔ GUIMARÃES","BR 116, KM 120","PASSO AMARELO",83820000,2,"Estrada Passo Amarelo",116,"Fazenda Rio Grande",83823,,google_maps,-25.6756158,-49.299895,0,3,1,0.51851851851852
56,743221441066,PR,74322,"FAZENDA RIO GRANDE",144,1066,"COLÉGIO ESTADUAL DR. DÉCIO DOSSI","RUA LARGO DA AMOREIRA, 65",EUCALIPTOS,83820515,15,"Largo Amoreira",65,"Fazenda Rio Grande",83820515,Eucaliptos,google_maps,-25.6481682,-49.3021781,0.00030977791671148,1,3,0.4
57,743221441074,PR,74322,"FAZENDA RIO GRANDE",144,1074,"COLÉGIO ESTADUAL ANITA CANET","RUA ISLÂNDIA, 1056",NAÇÕES,83823319,12,"Avenida Islândia",1056,"Fazenda Rio Grande",83823319,Nações,google_maps,-25.6663468,-49.3038284,0,2,1,0.25925925925926
58,743221441104,PR,74322,"FAZENDA RIO GRANDE",144,1104,"ESCOLA MUNICIPAL DEPUTADO LUIZ GABRIEL SAMPAIO","RUA SAO BRÁS, 94","SANTA TEREZINHA",83829242,11,"Rua São Braz",94,"Fazenda Rio Grande",83829242,"Santa Terezinha",google_maps,-25.6594069,-49.3267906,0.00027797975129289,1,3,0.3125
59,743221441139,PR,74322,"FAZENDA RIO GRANDE",144,1139,"ESCOLA MUNICIPAL SAO FRANCISCO DE ASSIS","RUA EL SALVADOR, 471",NAÇÕES,83823148,12,"Rua El Salvador",471,"Fazenda Rio Grande",83823148,Nações,google_maps,-25.6595773,-49.3018807,0.0023999971220142,1,3,0.53571428571429
60,743221441147,PR,74322,"FAZENDA RIO GRANDE",144,1147,"ESCOLA MUNICIPAL SANTA FÉ","TRAVESSA RIO PADILHA",IGUAÇU,83833332,13,"Travessa Rio Padilha",,"Fazenda Rio Grande",83833332,Iguaçu,google_maps,-25.641192,-49.3286393,0.00011370718334059,1,3,0.71428571428571
61,743221441171,PR,74322,"FAZENDA RIO GRANDE",144,1171,"ESCOLA MUNICIPAL ANTONIO BALDAN","RUA ALBATROZ, 430","GRALHA AZUL",83824402,10,"Avenida Albatroz",430,"Fazenda Rio Grande",83824440,"Gralha Azul",google_maps,-25.6747407,-49.3033614,0.0049126529580976,1,3,0.21428571428571
62,743221441180,PR,74322,"FAZENDA RIO GRANDE",144,1180,"ESCOLA MUNICIPAL CARLOS EDUARDO NICHELE","RUA NOSSA SENHORA DO ROCIO, 114","SANTA TEREZINHA",83829044,5,"Rua Nossa Senhora do Rocio",114,"Fazenda Rio Grande",83829044,"Santa Terezinha",google_maps,-25.6545489,-49.3189225,0.065340551068428,3,3,0.56521739130435
63,743221441198,PR,74322,"FAZENDA RIO GRANDE",144,1198,"COLÉGIO ESTADUAL BAYARD OSNA","RUA RIO SANTANA, 459",IGUAÇU,83833285,8,"Rua Rio Santana",459,"Fazenda Rio Grande",83833285,Iguaçu,here_geocoder,-25.6432243,-49.3261398,0.0032173503381071,1,3,0.55555555555556
64,743221441201,PR,74322,"FAZENDA RIO GRANDE",144,1201,"ESCOLA MUNICIPAL MARLENE BARBOSA","RUA PROFESSOR ALFREDO GONCHOROWSKI, 337",PIONEIROS,83833044,9,"Rua Professor Alfredo Gonchorovski",337,"Fazenda Rio Grande",83833044,Pioneiros,google_maps,-25.6419114,-49.3167217,0.011000532086268,1,2,0.6875
65,743221441210,PR,74322,"FAZENDA RIO GRANDE",144,1210,"ESCOLA MUNICIPAL ARNALDO BUSATO","AVENIDA BRASIL, 1540",EUCALIPTOS,83820065,10,"Avenida Brasil",1540,"Fazenda Rio Grande",83820065,Centro,here_geocoder,-25.6471076,-49.3063096,0.10485596781807,2,3,0.46666666666667
66,743221441228,PR,74322,"FAZENDA RIO GRANDE",144,1228,"COLÉGIO ESTADUAL OLINDAMIR MERLIN CLAUDINO","RUA GUIANA, 544",NAÇÕES,83823066,12,"Rua Guiana",544,"Fazenda Rio Grande",83823066,Nações,google_maps,-25.6594805,-49.3055857,0.014257836948216,1,3,0.43478260869565
67,743221441236,PR,74322,"FAZENDA RIO GRANDE",144,1236,"COLÉGIO ESTADUAL DESEMBARGADOR CUNHA PEREIRA","RUA SAO NATALINO, 2291","SANTA TEREZINHA",83829089,11,"Rua Santa Terezinha",,"Fazenda Rio Grande",83829046,"Santa Terezinha",here_geocoder,-25.65614,-49.31938,0,2,1,0.51351351351351
68,743221441252,PR,74322,"FAZENDA RIO GRANDE",144,1252,"COLÉGIO ESTADUAL LIRIA MICHELETO NICHELE","AVENIDA ESTADOS UNIDOS, 1818",NAÇÕES,83823196,7,"Avenida Estados Unidos",1818,"Fazenda Rio Grande",83823196,Nações,google_maps,-25.6661125,-49.2912529,0.026316615629755,1,3,0.61111111111111
69,743221441260,PR,74322,"FAZENDA RIO GRANDE",144,1260,"ESCOLA MUNICIPAL NOSSA SENHORA  DE FATIMA","RUA SÃO NICOLAU, 2420",IGUAÇU,83833138,5,"Rua São Nicolau",2420,"Fazenda Rio Grande",83833,Iguaçu,google_maps,-25.6483064,-49.3265502,0.00085697670799397,1,3,0.46428571428571
70,743221441279,PR,74322,"FAZENDA RIO GRANDE",144,1279,"ESCOLA MUNICIPAL SANTA CECILIA","RUA MARANHÃO, 74",ESTADOS,83830211,6,"Rua Maranhão",74,"Fazenda Rio Grande",83830211,Estados,here_geocoder,-25.672471,-49.3172858,0.00026871640265216,1,3,0.54166666666667
71,743221441287,PR,74322,"FAZENDA RIO GRANDE",144,1287,"ESCOLA MUNICIPAL SÃO GABRIEL","RUA DINAMARCA, 737",NAÇÕES,83823208,6,"Rua Dinamarca",737,"Fazenda Rio Grande",83823208,Nações,google_maps,-25.6594669,-49.2933835,0.05656440396402,1,3,0.5
72,743221441295,PR,74322,"FAZENDA RIO GRANDE",144,1295,"ESCOLA MUNICIPAL SANTA MARIA","RUA FORTALEZA, ESQ. COM RUA CURITIBA, S/N",ESTADOS,83830566,4,"Rua Curitiba",,"Fazenda Rio Grande",83830566,Estados,here_geocoder,-25.68579,-49.32128,3.2038934714646E-6,2,2,0.25531914893617
73,743221441309,PR,74322,"FAZENDA RIO GRANDE",144,1309,"COLÉGIO ESTADUAL LUCY REQUIÃO DE MELO E SILVA","RUA VIDEIRA, 315",EUCALIPTOS,83820445,9,"Rua Videira",315,"Fazenda Rio Grande",,Eucaliptos,google_maps,-25.6413318,-49.2981406,0.00033998634678535,1,3,0.42307692307692
74,743221441317,PR,74322,"FAZENDA RIO GRANDE",144,1317,"ESCOLA MUNICIPAL PROFª. MARYLE APARECIDA SCHTTERT FERRI","RUA TANGARÁ, 708","GRALHA AZUL",83824209,3,"Rua Tangará",708,"Fazenda Rio Grande",83824418,"Gralha Azul",google_maps,-25.6735879,-49.3072168,0.049322992375747,2,3,0.42857142857143
75,743221441325,PR,74322,"FAZENDA RIO GRANDE",144,1325,"ESCOLA MUNICIPAL JOAQUIM KATSUKI MATSUMOTO","RUA JAGUARIAIVA, 1146 - JD ANGICO",ESTADOS,83830361,7,"Rua Jaguariaíva 1146",1146,"Fazenda Rio Grande",83829346,,arcgis_online,-25.670530376835,-49.342372322026,0,3,1,0.47368421052632
76,743221441333,PR,74322,"FAZENDA RIO GRANDE",144,1333,"ESCOLA MUNICIPAL 26 DE JANEIRO - CAIC","AVENIDA BRASIL, 2014",EUCALIPTOS,83820065,7,"Avenida Brasil",2014,"Fazenda Rio Grande",83820065,Eucalíptos,here_geocoder,-25.6435829,-49.3052551,3.3187135225543E-5,3,2,0.46666666666667
77,743221441341,PR,74322,"FAZENDA RIO GRANDE",144,1341,"COLÉGIO ESTADUAL PROFESSOR ANDERSON RANGEL","RUA PAULO LEMINSKI, 399",VENEZA,83825320,7,"Rua Paulo Leminski",,"Fazenda Rio Grande",83825320,Veneza,here_geocoder,-25.7016199,-49.30373,0.017114797517954,1,3,0.62068965517241
78,743221441350,PR,74322,"FAZENDA RIO GRANDE",144,1350,"COLÉGIO ACESSO - UNIDADE FAZENDA RIO GRANDE (PARTICULAR)","RUA MACEDÔNIA, 315",NAÇÕES,83023010,6,"Rua Macedônia",315,"Fazenda Rio Grande",83823010,Nações,google_maps,-25.6522264,-49.3085343,0.026706989563843,1,3,0.51851851851852
79,74357501015,PR,74357,ARAUCÁRIA,50,1015,"ESCOLA VICENTINA SAGRADO CORACAO DE JESUS - PARTICULAR","AV DR. VICTOR DO AMARAL, 164",CENTRO,83702040,8,"Avenida Doutor Vítor do Amaral",164,Araucária,83702040,Centro,google_maps,-25.5942646,-49.4059157,0.035890392731204,3,3,0.53846153846154
80,74357501023,PR,74357,ARAUCÁRIA,50,1023,"ESCOLA MUNICIPAL IRMA ELIZABETH WERKA","RUA LOURENCO JASIOCHA, 531",CENTRO,83702090,9,"Rua Lourenço Jasiocha",531,Araucária,83702090,Centro,google_maps,-25.595519,-49.402885,0,2,1,0.59375
81,74357501031,PR,74357,ARAUCÁRIA,50,1031,"COLEGIO ESTADUAL PROFESSOR JULIO SZYMANSKI","R SAO VICENTE DE PAULO 76",CENTRO,83702050,14,"Rua São Vicente de Paulo",76,Araucária,83702050,Centro,google_maps,-25.5864341,-49.3973946,0.056015774092857,4,3,0.64705882352941
82,74357501040,PR,74357,ARAUCÁRIA,50,1040,"ESCOLA ESTADUAL  DIAS DA ROCHA","RUA MAJOR SEZINO PEREIRA DE SOUZA, 723",CENTRO,83702270,7,"Rua Major Sezino Pereira de Souza",723,Araucária,83702270,Centro,google_maps,-25.59156,-49.405986,0.03381368917336,1,3,0.75
83,74357501058,PR,74357,ARAUCÁRIA,50,1058,"ESCOLA MUNICIPAL ARCHELAU DE ALMEIDA TORRES","AV ARCHELAU DE ALMEIDA TORRES, 1411","JARDIM IGUACU",83701000,13,"Avenida Archelau de Almeida Torres",1411,Araucária,83701145,Iguaçu,here_geocoder,-25.5957114,-49.3902643,0.0021610090510279,2,2,0.64150943396226
84,74357501066,PR,74357,ARAUCÁRIA,50,1066,"CENTRO MUNICIPAL DE EDUCAÇÃO INFANTIL -  CACHOEIRA","RUA ANTONIO PINHO RIBAS, 24","JARDIM IGUACU",83701204,6,"Rua Antônio Pinho Ribas",,Araucária,83701200,Iguaçu,here_geocoder,-25.59466,-49.385,0.0037961574714054,1,2,0.525
85,74357501074,PR,74357,ARAUCÁRIA,50,1074,"ESCOLA MUNICIPAL PAPA PAULO VI","RUA JUSCELINO KUBITSCHEK DE OLIVEIRA, SN",PASSAÚNA,83704130,7,"Rua Presidente Juscelino K. de Oliveira",,Araucária,83704130,,arcgis_online,-25.578243,-49.427821281792,0,1,1,0.3469387755102
86,74357501082,PR,74357,ARAUCÁRIA,50,1082,"ESCOLA MUNICIPAL IBRAIM ANTONIO MANSUR","AV NOSSA SENHORA DOS REMEDIOS, 1360 - ZONA URBANA","FAZENDA VELHA",83704250,18,"Avenida Nossa Senhora dos Remédios",1359,Araucária,83704250,"Fazenda Velha",here_geocoder,-25.5762774,-49.4069848,0.019503098242701,2,2,0.49230769230769
87,74357501090,PR,74357,ARAUCÁRIA,50,1090,"ESCOLA MUNICIPAL ELIRIO ALVES PINTO","RUA BARIGUI, 501",IGUAÇU,83701530,6,"Rua Barigui",501,Araucária,83701535,Iguaçu,google_maps,-25.6102258,-49.3867079,0.00077857458979509,1,3,0.47826086956522
88,74357501104,PR,74357,ARAUCÁRIA,50,1104,"COLEGIO ESTADUAL FAZENDA VELHA","RUA DOUTOR VITAL BRASIL, 830",ESTACAO,83705174,8,"Rua Doutor Vital Brasil",830,Araucária,83705174,Estação,google_maps,-25.5746,-49.392014,0.0023534239871819,1,3,0.65714285714286
89,74357501112,PR,74357,ARAUCÁRIA,50,1112,"ESCOLA MUNICIPAL DEPUTADO JOAO LEOPOLDO JACOMEL","RUA NOSSA SENHORA DE FATIMA, SN",COSTEIRA,83709020,3,"Rua Nossa Senhora de Fátima",,Araucária,83709020,Costeira,here_geocoder,-25.59339,-49.36333,0.031918861050715,1,2,0.64102564102564
90,74357501120,PR,74357,ARAUCÁRIA,50,1120,"ESCOLA MUNICIPAL GENERAL CELSO DE AZEVEDO DALTRO SANTOS","RUA JOSE BONVIM S/N-  SN ZONA URBANA",TINDIQUERA,83708210,7,"Rua José Bonvim",,Araucária,83708210,Tindiquera,here_geocoder,-25.58643,-49.38152,0.0021932266666794,1,2,0.28888888888889
91,74357501139,PR,74357,ARAUCÁRIA,50,1139,"COLEGIO ESTADUAL PROFESSORA AGALVIRA DE BITTENCOURT PINTO","RUA ANDORINHA 640 ZONA URBANA","CAPELA VELHA",83706130,9,"Rua Andorinha",640,Araucária,83706130,"Capela Velha",here_geocoder,-25.5513369,-49.3880521,2.6413483591889E-5,1,2,0.30952380952381
92,74357501147,PR,74357,ARAUCÁRIA,50,1147,"COLEGIO ESTADUAL DEPUTADO  VESPERTINO FERREIRA PIMPÃO","RUA DOM MANOEL DA SILVEIRA DEL'BOUX, 1005","THOMAZ COELHO",83707210,8,"Rua Dom Manoel da Silveira Del'boux",1005,Araucária,83707210,"Thomaz Coelho",google_maps,-25.5480866,-49.354949,0.012650465126975,1,3,0.64814814814815
93,74357501155,PR,74357,ARAUCÁRIA,50,1155,"ESCOLA MUNICIPAL PREFEITO ALEIXO GREBOS","RUA JOSE LEAL DE OLIVEIRA, 261","VILA ANGELICA",83706580,6,"Rua José Leal de Oliveira",261,Araucária,83707114,"Thomaz Coelho",here_geocoder,-25.5308475,-49.3615252,4.3521972126191E-5,1,2,0.53488372093023
94,74357501163,PR,74357,ARAUCÁRIA,50,1163,"ESCOLA MUNICIPAL VICTORIO SFENDRYCH","AVENIDA CENTENARIO, 184",BARIGUI,83706780,3,"Avenida Centenário",184,Araucária,83706780,Barigui,google_maps,-25.521671,-49.351684,0.070704277608445,2,2,0.53333333333333
95,74357501171,PR,74357,ARAUCÁRIA,50,1171,"CAPELA SÃO MIGUEL","RUA PADRE BOLESLAU BAYER, 2249","SAO MIGUEL",83706776,1,"Rua Padre Boleslau Bayer",2249,Araucária,83706,"São Miguel",google_maps,-25.5172927,-49.3718401,0.17063414262875,1,3,0.6
96,74357501180,PR,74357,ARAUCÁRIA,50,1180,"ESCOLA MUNICIPAL DE EDUCAÇÃO ESPECIAL PROF. JOANA B DA SILVA","ESTRADA DE CATANDUVAS, 3680","CAMPO REDONDO",83700000,2
97,74357501198,PR,74357,ARAUCÁRIA,50,1198,"ESCOLA RURAL MUNICIPAL FRANCISCO BIELIK","RODOVIA DO XISTO-ZONA RURAL","GUAJUVIRA DE CIMA",83700000,1,"Rodovia do Xisto",,Araucária,83707000,Chapada,here_geocoder,-25.56459,-49.3783699,0,2,1,0.35555555555556
98,74357501201,PR,74357,ARAUCÁRIA,50,1201,"CENTRO DE SAUDE BOA VISTA","RODOVIA MUNICIPAL EUCLIDES GONCALVES PEREIRA-ZONA RURAL","BOA VISTA",83700000,2,"Rod Mun Euclides Gonçalves Ferreira",,Araucária,83703380,,here_geocoder,-25.63322,-49.50471,0.0073170040896567,1,2,0.46153846153846
99,74357501210,PR,74357,ARAUCÁRIA,50,1210,"CENTRO DE SAUDE  NOSSA SENHORA APARECIDA","ESTRADA MUNICIPAL PARA CATANDUVAS DO SUL, S/N","LAGOA GRANDE",83700000,1
100,74357501228,PR,74357,ARAUCÁRIA,50,1228,"ESCOLA MUNICIPAL RURAL RUI BARBOSA","LAGOA GRANDE- ZONA RURAL","LAGOA GRANDE",83700970,2
101,74357501236,PR,74357,ARAUCÁRIA,50,1236,"CENTRO DE SAUDE PEDRO WOINAROWICZ","RUA FAZENDINHA, S/N- ZONA RURAL","RIO ABAIXINHO",83708000,2
102,74357501244,PR,74357,ARAUCÁRIA,50,1244,"ESCOLA RURAL MUNICIPAL ROSA PICHETH","ESTRADA DE TERRA, 230","GUAJUVIRA DE BAIXO",83700970,4
103,74357501260,PR,74357,ARAUCÁRIA,50,1260,"ESCOLA RURAL MUNICIPAL EDVINO NOWAK","AVENIDA INDEPENDÊNCIA, S/N - ZONA RURAL","RIO VERDE ACIMA",83704000,1,"Avenida Independência",,Araucária,83704000,,here_geocoder,-25.57223,-49.42784,0.0083323472332834,3,2,0.41509433962264
104,74357501279,PR,74357,ARAUCÁRIA,50,1279,"SOCIEDADE CULTURAL E AGRÍCOLA SAO CASEMIRO","COLONIA CRISTINA-ZONA RURAL","COLONIA CRISTINA",83700000,2
105,74357501287,PR,74357,ARAUCÁRIA,50,1287,"ESCOLA RURAL MUNICIPAL PROF. ANDREA MARIA SCHERREIER DIAS","ESTRADA DO TIETE S/N -ZONA RURAL",TIETE,83711300,3
106,74357501295,PR,74357,ARAUCÁRIA,50,1295,"ESCOLA MUNICIPAL DOM PEDRO II","ONCAS-ZONA RURAL",ONÇAS,83700000,2
107,74357501309,PR,74357,ARAUCÁRIA,50,1309,"ESCOLA MUNICIPAL ESPECIAL AGRICOLA PADRE JOSE ANUSZ","CONTINUAÇÃO DA AV INDEPENDENCIA S/N  ZONA RURAL","CAMPINA DAS PEDRAS",83700000,2
108,74357501317,PR,74357,ARAUCÁRIA,50,1317,"SOCIEDADE AGRÍCOLA SÃO JOÃO CANCIO","ROCA NOVA - ZONA RURAL","ROCA NOVA",83700000,1
109,74357501325,PR,74357,ARAUCÁRIA,50,1325,"ESCOLA MUNICIPAL PROFESSORA AZUREA BUSQUETTE BELNOSKI","RUA BEGONIA, 1051","CAMPINA DA BARRA",83709320,12,"Rua Begônia",1051,Araucária,83709670,"Campina da Barra",google_maps,-25.6244742,-49.3697713,0.0051205550119305,1,3,0.27272727272727
110,74357501333,PR,74357,ARAUCÁRIA,50,1333,"COLEGIO ESTADUAL LINCOLN SETEMBRINO COIMBRA","RUA BICO DE LACRE, 825","JARDIM CALIFORNIA",83706450,4,"Rua Bico-de-Lacre",825,Araucária,81330200,"Jd California",google_maps,-25.5414685,-49.3811631,0.020718533152481,1,3,0.43589743589744
111,74357501341,PR,74357,ARAUCÁRIA,50,1341,"ESCOLA MUNICIPAL SENADOR MARCOS FREIRE","RUA FRANCISCO GONDEK, 250",ESTACAO,83701815,8,"Rua Francisco Gondek",250,Araucária,83705260,Estação,google_maps,-25.565587,-49.3894189,0.020280587533695,4,3,0.625
112,74357501350,PR,74357,ARAUCÁRIA,50,1350,"ESCOLA MUNICIPAL DAVID CARNEIRO","RUA BERNARDINO LEMOS, 326",COSTEIRA,83709160,11,"Rua Bernardino Lemos",326,Araucária,83709160,Costeira,google_maps,-25.6034202,-49.3717374,0.0017888450097572,1,3,0.60606060606061
113,74357501368,PR,74357,ARAUCÁRIA,50,1368,"ESCOLA RURAL MUNICIPAL PRESIDENTE CASTELO BRANCO","CAPINZAL- ZONA RURAL",CAPINZAL,83700000,2
114,74357501376,PR,74357,ARAUCÁRIA,50,1376,"ESCOLA RURAL MUNICIPAL DUQUE DE CAXIAS","FORMIGUEIRO-ZONA RURAL",FORMIGUEIRO,83700000,1
115,74357501384,PR,74357,ARAUCÁRIA,50,1384,"ESCOLA MUNICIPAL AYRTON SENNA DA SILVA","RUA AVESTRUZ, 160","CAPELA VELHA",83706230,10,"Rua Avestruz",160,Araucária,83706230,"Capela Velha",google_maps,-25.5524251,-49.3943797,0.011700406648228,1,3,0.41379310344828
116,74357501392,PR,74357,ARAUCÁRIA,50,1392,"ESCOLA MUNICIPAL PRESIDENTE JUSCELINO KUBITSCHEK OLIVEIRA","RUA JOAQUINA TONCHAK, S/N","PORTO DAS LARANJEIRAS",83703070,3,"Rua Joaquina Tonchak",,Araucária,83703070,"Porto das Laranjeiras",google_maps,-25.5867806,-49.4163995,0.00015279304999876,2,2,0.43478260869565
117,74357501406,PR,74357,ARAUCÁRIA,50,1406,"ESCOLA MUNICIPAL PROFESSORA SILDA SALLY WILLE EHLKE","RUA MATO GROSSO, 631","JARDIM FONTE NOVA",83701260,4,"Rua Mato Grosso",631,Araucária,83701260,Iguaçu,here_geocoder,-25.6036347,-49.3873973,4.0468708183171E-5,1,2,0.40540540540541
118,74357501414,PR,74357,ARAUCÁRIA,50,1414,"ESCOLA MUNICIPAL PROFESSORA TEREZINHA MARIANO THEOBALD","RUA GUMERCINDO ROSA PIMENTA, 76",CACHOEIRA,83708550,5,"Rua Gumercindo Rosa Pimenta",76,Araucária,83708550,Cachoeira,google_maps,-25.5880128,-49.3863665,0.00035340655682051,1,3,0.675
119,74357501422,PR,74357,ARAUCÁRIA,50,1422,"CAIC - ESCOLA MUNICIPAL PROF. EGLE CORDEIRO MACHADO PINTO","RUA SARACURA, 1314","JARDIM CALIFORNIA",83706210,6,"Rua Saracura",1314,Araucária,83706210,"Capela Velha",here_geocoder,-25.5429179,-49.3813397,3.5463406019746E-5,1,2,0.34285714285714
120,74357501430,PR,74357,ARAUCÁRIA,50,1430,"ESCOLA MUNICIPAL MARCELINO LUIZ DE ANDRADE","RUA TICO-TICO, 165","CAPELA VELHA",83705590,6,"Rua Tico-Tico",165,Araucária,83705590,"Capela Velha",google_maps,-25.5547492,-49.4010298,0.00072848111788584,1,3,0.43333333333333
121,74357501449,PR,74357,ARAUCÁRIA,50,1449,"ESCOLA MUNICIPAL PROFESSORA MARIA APARECIDA SALIBA TORRES","RUA PROFESSORA MARIA NASSAR SCHAUSTEK, 1024","CAMPINA DA BARRA",83709830,9,"Rua Professora Maria Nassar Schaustek",1024,Araucária,83709830,"Campina da Barra",google_maps,-25.6142277,-49.3733154,0.001010207011698,1,3,0.6271186440678
122,74357501457,PR,74357,ARAUCÁRIA,50,1457,"ESCOLA MUNICIPAL PROFESSOR AMBROSIO IANTAS","RUA PAU-BRASIL, 50","JARDIM ITAIPU",83705420,4,"Rua Pau-Brasil",50,Araucária,83705420,"Capela Velha",here_geocoder,-25.5588012,-49.3918439,1.7789555853382E-5,1,2,0.45161290322581
123,74357501465,PR,74357,ARAUCÁRIA,50,1465,"ESCOLA MUNICIPAL PROFESSORA ELVIRA DE FRANÇA BUSCHMANN","RUA UIRAPURU, 228","JARDIM IPES",83706070,7,"Rua Uirapuru",228,Araucária,81330200,"Jardim Ipes",google_maps,-25.5526721,-49.3855999,0.012083636962381,1,3,0.42857142857143
124,74357501473,PR,74357,ARAUCÁRIA,50,1473,"CAPELA SANTO ANTONIO","MATO DENTRO - ZONA RURAL","MATO DENTRO",83700000,1
125,74357501481,PR,74357,ARAUCÁRIA,50,1481,"ESCOLA MUNICIPAL PROFESSORA NADIR NEPOMUCENO ALVES PINTO","RUA LUCAS WILCZAK, 32",COSTEIRA,83708690,9,"Rua Lucas Wilczak",32,Araucária,83708690,Costeira,here_geocoder,-25.5958999,-49.376786,0.0007583404769238,1,3,0.58620689655172
126,74357501490,PR,74357,ARAUCÁRIA,50,1490,"ESCOLA MUNICIPAL PROFESSORA EGIPCIANA SWAIN PARANÁ CARRANO","RUA JOAO TULIO, 175","JARDIM IGUATEMI",83704370,4,"Rua João Túlio",175,Araucária,83704370,Passaúna,here_geocoder,-25.5732631,-49.4222176,2.3571024455228E-5,2,2,0.29411764705882
127,74357501503,PR,74357,ARAUCÁRIA,50,1503,"ESCOLA MUNICIPAL CASTRO ALVES (CAMPINA DAS PALMEIRAS)","ESTRADA DO CAMPO TOMAZ, S/N","CAMPINA DAS PALMEIRAS",83700000,1,"Rua das Palmeiras",,Araucária,83705500,Estação,here_geocoder,-25.56181,-49.40119,0,1,1,0.33333333333333
128,74357501511,PR,74357,ARAUCÁRIA,50,1511,"ESCOLA MUNICIPAL PROFESSORA BALBINA PEREIRA DE SOUZA","RUA AZALÉIA, N. 170","JARDIM TUPY",83709740,5,"Rua Azaléia",170,Araucária,83709740,"Campina da Barra",here_geocoder,-25.6187094,-49.3656073,0.0065681468738586,1,2,0.38709677419355
129,74357501520,PR,74357,ARAUCÁRIA,50,1520,"ESCOLA MUNICIPAL DE EDUCAÇÃO ESPECIAL JOELMA DO ROCIO TULIO","RUA MARIA DE LOURDES G. KAMPA, 70",CENTRO,83702120,5,"Rua Maria de Lourdes Grabowski Kampa",70,Araucária,83701610,Cachoeira,google_maps,-25.5934174,-49.3970212,0.021500409883215,1,2,0.61538461538462
130,74357501538,PR,74357,ARAUCÁRIA,50,1538,"ESCOLA MUNICIPAL PROFESSORA DELANI APARECIDA ALVES","RUA AGUIA, 1450","CAPELA VELHA",83700000,7,"Rua Àguia",1450,Araucária,83706,"Capela Velha",google_maps,-25.5476318,-49.3935848,0,2,1,0.25925925925926
131,74357501554,PR,74357,ARAUCÁRIA,50,1554,"CENTRO DE SAUDE SAO FRANCISCO DE ASSIS","RUA ESTELA LESINOWSKI WZOREK, 360","FAZENDA VELHA",83708000,2,"Rua Estela Lesniowski Wzorek",360,Araucária,83703420,"Fazenda Velha",google_maps,-25.5793323,-49.4056662,0,2,1,0.56521739130435
132,74357501562,PR,74357,ARAUCÁRIA,50,1562,"CASA DA CRIANÇA - PALOMAR","AV NOSSA SENHORA DOS REMEDIOS, 1802","JARDIM PALOMAR",83708000,5,"Avenida Nossa Senhora dos Remédios",1802,Araucária,83704250,"Fazenda Velha",here_geocoder,-25.576154,-49.4023382,2.0541549901143E-5,2,2,0.59259259259259
133,74357501570,PR,74357,ARAUCÁRIA,50,1570,"SENAI - SERVIÇO NACIONAL DE APRENDIZAGEM INDUSTRIAL","RODOVIA DO XISTO - MARGINAL DA BR 476 N 58155","JARDIM SABIA",83705740,4,"Rodovia do Xisto",,Araucária,83708040,Sabiá,here_geocoder,-25.57687,-49.39184,0,2,1,0.28571428571429
134,74357501589,PR,74357,ARAUCÁRIA,50,1589,"CAPELA NOSSA SENHORA CZESTOCHOWA","CAPOEIRA GRANDE",CAPINZAL,83700000,1
135,74357501597,PR,74357,ARAUCÁRIA,50,1597,"ESCOLA MUNICIPAL PLANALTO DOS PINHEIROS","RUA MANOEL RIBAS,3561",PLANALTO,83708350,5,"Rua Manoel Ribas",3561,Araucária,83708695,Costeira,here_geocoder,-25.6001012,-49.3706127,0.0079711940726516,2,3,0.53333333333333
136,74357501600,PR,74357,ARAUCÁRIA,50,1600,"ESCOLA MUNICIPAL PEDRO BISCAIA","RUA JARDINEIRA,1021","CAMPINA DA BARRA",83709310,3,"Rua Jardineira",1021,Araucária,83709,"Campina da Barra",google_maps,-25.6204375,-49.3755085,0,2,1,0.38888888888889
137,74357501619,PR,74357,ARAUCÁRIA,50,1619,"CENTRO MUNICIPAL DE EDUCAÇÃO INFANTIL JD DO CONHECIMENTO","RUA SÃO VICENTE DE PAULO, 600",CENTRO,83702050,2,"Rua São Vicente de Paulo",600,Araucária,83702050,Centro,here_geocoder,-25.5893548,-49.3992473,4.955673809E-5,2,2,0.62857142857143
138,74357501635,PR,74357,ARAUCÁRIA,50,1635,"CENTRO EDUCACIONAL BÁSICO PARA JOVENS E ADULTOS - CEEBJA","RUA MAJOR CEZINO PEREIRA DE SOUZA,419",CENTRO,83700000,2,"Rua Major Sezino Pereira de Souza",419,Araucária,83708,Centro,google_maps,-25.5927076,-49.4086895,0.18453269021255,1,3,0.72727272727273
139,74357501643,PR,74357,ARAUCÁRIA,50,1643,"PARQUE CACHOEIRA","AVENIDA ARCHELAU DE ALMEIDA TORRES S/N",CACHOEIRA,83701000,1,"Avenida Archelau de Almeida Tôrres",,Araucária,,Cachoeira,google_maps,-25.5944982,-49.3924736,0.0043096610002322,2,2,0.66666666666667
140,74357501651,PR,74357,ARAUCÁRIA,50,1651,"BANDA MUNICIPAL DE ARAUCÁRIA","RUA CORONEL JOÃO ANTONIO XAVIER, 906",CENTRO,83702420,1,"Rua Coronel João Antonio Xavier",906,Araucária,83702420,Centro,google_maps,-25.591698,-49.407656,0,2,1,0.74418604651163
141,74357501660,PR,74357,ARAUCÁRIA,50,1660,"CENTRO DE CONVIVÊNCIA ULISSES GUIMARÃES","AVENIDA BRASIL, 379",CENTRO,83702230,1,"Avenida Brasil",379,Araucária,83702230,Centro,here_geocoder,-25.5948474,-49.3991448,0.013633741672089,1,3,0.56
142,74357501678,PR,74357,ARAUCÁRIA,50,1678,"CENTRO SOCIAL URBANO","AV NOSSA SENHORA DOS REMÉDIOS, 1360","FAZENDA VELHA",83704250,1,"Rua Nossa Senhora dos Remédios",1360,Araucária,83704250,"Fazenda Velha",google_maps,-25.576786,-49.406626,0.020299582005828,2,3,0.53703703703704
143,744381821015,PR,74438,"BALSA NOVA",182,1015,"ESCOLA MUNICIPAL JOAQUIM RIBAS DE ANDRADE","RUA FRANCISCO MANOEL DA CRUZ, 889",CENTRO,83650000,4,"Rua Francisco Manoel da Cruz",889,"Balsa Nova",83650000,,google_maps,-25.5840461,-49.6357977,0.0024641589419083,2,3,0.71794871794872
144,744381821023,PR,74438,"BALSA NOVA",182,1023,"COLEGIO ESTADUAL MARIA LUIZA FRANCO PACHECO","RUA GETULIO VARGAS,70",CENTRO,83650000,6,"Rua Getúlio Vargas",70,"Balsa Nova",83650000,"Balsa Nova",here_geocoder,-25.5859785,-49.6280514,0.0008040522360516,1,3,0.57142857142857
145,744381821040,PR,74438,"BALSA NOVA",182,1040,"ESCOLA RURAL MUNICIPAL PROFESSOR JOAQUIM DA ROCHA SOARES","RUA FELTRIN,77","RODEIO SANTO ANTONIO",83650000,2
146,744381821066,PR,74438,"BALSA NOVA",182,1066,"ESCOLA MUNICIPAL DOUTOR MARIO FARACO","RUA MARCOS POLETTO, SN",BUGRE,83650000,3,"Rodovia Bugre",,"Balsa Nova",83650000,,here_geocoder,-25.49187,-49.61876,0.00053395829406008,1,2,0.33333333333333
147,744381821066,PR,74438,"BALSA NOVA",182,1066,"ESCOLA MUNICIPAL DOUTOR MARIO FARACO","RUA MARCOS POLETTO, SN","RUA MARCOS POLETTO, SN",83650000,2
148,744381821074,PR,74438,"BALSA NOVA",182,1074,"COLEGIO ESTADUAL VEREADOR ANGELO GEQUELIN","RUA MARCOS POLETTO, SN",BUGRE,83650000,5,"Rodovia Bugre",,"Balsa Nova",83650000,,here_geocoder,-25.49187,-49.61876,0.00053395829406008,1,2,0.33333333333333
149,744381821082,PR,74438,"BALSA NOVA",182,1082,"ESCOLA RURAL MUNICIPAL PROFESSOR HERCULANO SCHIMALESKI","RUA PROFESSORA SABINA SERRA RICETTO, 530","SAO LUIZ DO PURANA",83650000,4,"Rua Sabina Serra Recetto",,"Balsa Nova",83650000,,here_geocoder,-25.44478,-49.70772,0.00028303153642549,1,2,0.39655172413793
150,744381821090,PR,74438,"BALSA NOVA",182,1090,"ESCOLA RURAL MUNICIPAL JOAO ANDREASSA","RUA SAO CAETANO, 392","SAO CAETANO",83650971,3,"Rua São Caetano",392,"Balsa Nova",83604,"Loteamento Santa Ana",google_maps,-25.4587246,-49.5843136,0,1,1,0.45161290322581
151,744381821104,PR,74438,"BALSA NOVA",182,1104,"ESCOLA RURAL MUNICIPAL ITAMBE","RUA DAVID FAY, S/N","JARDIM SERRINHA",83650000,2,"Estrada Para Balsa Nova",,"Balsa Nova",83650000,,arcgis_online,-25.502239666752,-49.62333264582,0,1,1,0.21212121212121
152,744381821139,PR,74438,"BALSA NOVA",182,1139,"ESCOLA MUNICIPAL PADRE BOLESLAU LIANA","RUA SETE DE SETEMBRO,783","MOR PURUNÃ",83650000,2,"Rua Sete de Setembro",783,"Balsa Nova",83650000,"Balsa Nova",here_geocoder,-25.5772514,-49.6186746,4.8639785606187E-5,1,2,0.55555555555556
153,744381821147,PR,74438,"BALSA NOVA",182,1147,"ESCOLA MUNICIPAL IRMA ROSALINA","RUA AUGUSTO PERSUSSOLO, 514","SAO CAETANO",83650971,3,"Rua Augusto Perussolo",,"Balsa Nova",83650000,"Jardim Bela Vista",google_maps,-25.4661869,-49.5859299,0,1,1,0.55263157894737
154,744461561023,PR,74446,ITAPERUÇU,156,1023,"POSTO DE SAÚDE MUNICIPAL DO BARRO BRANCO","ESTRADA PRINCIPAL DO CANELÃO, S/N","BARRO BRANCO",83560000,1
155,744461561031,PR,74446,ITAPERUÇU,156,1031,"COLÉGIO ESTADUAL NOSSA SENHORA DAS GRAÇAS","ESTRADA PRINCIPAL DO CANELÃO (BREJAL)",CANELÃO,83560000,2
156,744461561058,PR,74446,ITAPERUÇU,156,1058,"ESCOLA MUNICIPAL MARIA DO ROSARIO JOHNSSON BINI","R. ANTÔNIO TOMÉ, 232","VILA TOMÉ",83560000,7,"Rua Antônio Elias 232",232,Itaperuçu,83560000,,arcgis_online,-25.213505843822,-49.332810611939,0.022062818986809,4,1,0.4375
157,744461561066,PR,74446,ITAPERUÇU,156,1066,"COLÉGIO ESTADUAL JOSÉ PIOLI","RUA ALCIDES GOMES DA SILVA, 205","SANTA MARIA",83560000,10,"Rua Alcides Gomes da Silva",205,Itaperuçu,83560000,Itaperuçu,here_geocoder,-25.2190262,-49.3507486,4.2348063707005E-5,1,2,0.61904761904762
158,744461561074,PR,74446,ITAPERUÇU,156,1074,"ESCOLA MUNICIPAL DE CANDIDOS","RUA JOÃO DIVETE BETIM, S/N",CANDIDOS,83560000,7,"Rua João Divete Betim",,Itaperuçu,83560000,Itaperuçu,here_geocoder,-25.21911,-49.3567899,0.0082292463842618,3,3,0.62857142857143
159,744461561082,PR,74446,ITAPERUÇU,156,1082,"COLÉGIO ESTADUAL LUIZ MALTACA","RUA JOÃO BELIZÁRIO PINTO, S/N",CAPINZAL,83560000,8,"Rua Dom João VI",,Itaperuçu,83560000,,arcgis_online,-25.226347501426,-49.356276750396,0,4,1,0.25641025641026
160,744461561090,PR,74446,ITAPERUÇU,156,1090,"ESCOLA MUNICIPAL JOAO APOLINARIO STRESSER","RUA MIGUEL PEDROSO DE MORAES, 101","JARDIM ITAU",83560000,10,"Rua Miguel Pedroso de Moraes",101,Itaperuçu,83560000,Itaperuçu,here_geocoder,-25.2160788,-49.333165,0.0044640276080028,1,3,0.63636363636364
161,744461561112,PR,74446,ITAPERUÇU,156,1112,"ESCOLA RURAL MUNICIPAL DE POMBAS","ESTRADA PRINCIPAL DE POMBAS, S/N (EM FRENTE À IGREJA CATÓLICA)",POMBAS,83560000,2,"Rua Nove",,Itaperuçu,83560000,,arcgis_online,-25.203652169416,-49.341391347451,0,1,1,0.085714285714286
162,744461561120,PR,74446,ITAPERUÇU,156,1120,"POSTO DE SAÚDE MUNICIPAL DE SÃO DOMINGOS","ESTRADA AÇUNGUI DO MEIO - SÃO DOMINGOS, S/N","SÃO DOMINGOS (ZONA RURAL)",83560000,1
163,744461561139,PR,74446,ITAPERUÇU,156,1139,"POSTO DE SAÚDE MUNICIPAL ACUNGUI DO MEIO","ESTRADA PRINCIPAL DO CANELÃO, S/N","AÇUNGUI DO MEIO",83560000,2,"Rua Nove",,Itaperuçu,83560000,,arcgis_online,-25.203652169416,-49.341391347451,0,1,1,0.12
164,744461561155,PR,74446,ITAPERUÇU,156,1155,"POSTO DE SAÚDE MUNICIPAL DO TAQUARAL","ESTRADA DO AÇUNGUI, S/N",TAQUARAL,83560000,1,"Rua Itaperuçú",,Itaperuçu,83560000,,arcgis_online,-25.216242396607,-49.332258520679,0,2,1,0.15625
165,744461561163,PR,74446,ITAPERUÇU,156,1163,"ESCOLA RURAL MUNICIPAL JOÃO ADOLFO (INATIVA)","ESTRADA DE RANCHARIA - TRÊS IRMÃOS, S/N","RANCHARIA/TRÊS IRMÃOS",83560000,1,"Rua Três",,Itaperuçu,83560000,,arcgis_online,-25.204857210297,-49.341469232851,0.0072909483048725,2,1,0.12903225806452
166,744461561198,PR,74446,ITAPERUÇU,156,1198,"ESCOLA RURAL MUNICIPAL DE BOLO GRANDE","ESTRADA PRINCIPAL DO CANELÃO, S/N","BOLO GRANDE",83560000,2,"Rua Nove",,Itaperuçu,83560000,,arcgis_online,-25.203652169416,-49.341391347451,0,1,1,0.13333333333333
167,744461561228,PR,74446,ITAPERUÇU,156,1228,"ESCOLA MUNICIPAL ANTONIO HIMERCIDIO CAVALCANTE","RUA JOÃO JULIO STRESSER, 130","JARDIM SÃO DOMINGOS",80560000,1,"Rua João Júlio Strasser",130,Itaperuçu,83560000,Itaperuçu,here_geocoder,-25.2147058,-49.3511954,4.7331294596905E-5,1,2,0.4375
168,744461561236,PR,74446,ITAPERUÇU,156,1236,"ESCOLA MUNICIPAL FREI BARNABÉ TENANI","RUA SÃO LUCAS, S/N",CAPINZAL,80560000,1
169,74594481015,PR,74594,"BOCAIÚVA DO SUL",48,1015,"COLEGIO ESTADUAL CARLOS ALBERTO RIBEIRO","TRAVESSA JACOB BUDEL, 36",CENTRO,83450000,7,"Travessa Jacob Budel",36,"Bocaiúva do Sul",83450000,"Bocaiúva do Sul",here_geocoder,-25.2083599,-49.1134573,2.9536363449634E-5,1,2,0.66666666666667
170,74594481023,PR,74594,"BOCAIÚVA DO SUL",48,1023,"SECRETARIA MUNICIPAL DE EDUCAÇÃO","RUA BENJAMIN CONSTANTE TEIXEIRA, 1079",CENTRO,83450000,1,"Rua Benjamimn Constant",1079,"Bocaiúva do Sul",83450000,"Bocaiúva do Sul",here_geocoder,-25.2116846,-49.1123141,0.044880991672511,2,2,0.46511627906977
171,74594481058,PR,74594,"BOCAIÚVA DO SUL",48,1058,"ESCOLA RURAL MUNICIPAL DE BOM RETIRO","ESTRADA PRINCIPAL DO BOM RETIRO","BOM RETIRO",83450000,1
172,74594481066,PR,74594,"BOCAIÚVA DO SUL",48,1066,"CAPELA DIVINO ESPIRITO SANTO","ESTRADA PRINCIPAL DO PASSA VINTE-BARRA DO PASSA VINTE","PASSA VINTE",83450000,1
173,74594481074,PR,74594,"BOCAIÚVA DO SUL",48,1074,"ESCOLA RURAL MUNICIPAL DE INVERNADA","ESTRADA PRINCIPAL DA INVERNADA",INVERNADA,83450000,1
174,74594481082,PR,74594,"BOCAIÚVA DO SUL",48,1082,"ESCOLA RURAL MUNICIPAL JACOB PORKOTE (PALMITAL)","ESTRADA PRINCIPAL DO PALMITAL, AO LADO DA IGREJA",PALMITAL,83450000,1
175,74594481104,PR,74594,"BOCAIÚVA DO SUL",48,1104,"ESCOLA RURAL MUNICIPAL DE RIO ABAIXO (DESATIVADA)","ESTRADA PRINCIPAL DO RIO ABAIXO","RIO ABAIXO",83450000,1
176,74594481120,PR,74594,"BOCAIÚVA DO SUL",48,1120,"ESCOLA MUNICIPAL PEDRO ALBERTO COSTA","RUA QUINTINO BOCAIUVA, 519",CENTRO,83450000,9,"Rua Quintino Bocaiúva",519,"Bocaiúva do Sul",83450000,"Bocaiúva do Sul",here_geocoder,-25.2071904,-49.1163964,0.010027672189697,2,3,0.59375
177,74594481155,PR,74594,"BOCAIÚVA DO SUL",48,1155,"COLÉGIO ESTADUAL QUIELSE CRISÓSTOMO DA SILVA","RUA JUVELINO BITTENCOURT, S/N","SÃO MARCOS",83450000,8,"Rua Juvelina Bitencourt Ribas",,"Bocaiúva do Sul",83450000,,arcgis_online,-25.218508333184,-49.105209675864,0,2,1,0.64102564102564
178,747721951023,PR,74772,"CAMPINA GRANDE DO SUL",195,1023,"ESCOLA MUNICIPAL JOSE EURIPEDES GONÇALVES","RUA CORONEL MONTEIRO, 443",CENTRO,83430000,9,"Rua Coronel Monteiro",467,"Campina Grande do Sul",83430000,"Campina Grande do Sul",here_geocoder,-25.3057867,-49.0531705,7.7434720450188E-5,1,2,0.64516129032258
179,747721951031,PR,74772,"CAMPINA GRANDE DO SUL",195,1031,"SALÃO PAROQUIAL DO TAQUARI","ESTRADA DO TAQUARI, S/N - TAQUARI -  ZONA RURAL",TAQUARI,83430000,2
180,747721951040,PR,74772,"CAMPINA GRANDE DO SUL",195,1040,"COLÉGIO ESTADUAL TERRA BOA","BR 116, KM 50","PAIOL DE BAIXO",83430000,4,"BR-116 50",50,"Campina Grande do Sul",83430000,,arcgis_online,-25.237404,-48.9071115,0,3,1,0.33333333333333
181,747721951058,PR,74772,"CAMPINA GRANDE DO SUL",195,1058,"COLEGIO ESTADUAL TIMBU VELHO","R JACOB CECCON, 438 -  TIMBU VELHO - ZONA URBANA","TIMBU VELHO",83430000,9,"Rua Jacob Ceccon",438,"Campina Grande do Sul",83430000,"Campina Grande do Sul",here_geocoder,-25.3515742,-49.1180129,0.00015572470246004,1,2,0.28571428571429
182,747721951066,PR,74772,"CAMPINA GRANDE DO SUL",195,1066,"ESCOLA RURAL MUNICIPAL DA MANDACAIA","ESTRADA DA MANDASSAIA, S/N",MANDASSAIA,83430000,1,"Estrada do Japonês",,"Campina Grande do Sul",83430000,,arcgis_online,-25.30591,-49.05399,0,1,1,0.36111111111111
183,747721951074,PR,74772,"CAMPINA GRANDE DO SUL",195,1074,"ESCOLA RURAL MUNICIPAL JOÃO ASSUNÇÃO","ESTRADA PRINCIPAL DA JAGUATIRICA, S/N",JAGUATIRICA,83430000,4
184,747721951082,PR,74772,"CAMPINA GRANDE DO SUL",195,1082,"ESCOLA RURAL MUNICIPAL DO POSTO FISCAL","BR 116, KM 05, RIO PARDINHO","RIO DO CEDRO",83430000,1,"Rua Cinco",116,"Campina Grande do Sul",83430000,"Campina Grande do Sul",here_geocoder,-25.3288056,-49.0769695,0,3,1,0.15789473684211
185,747721951090,PR,74772,"CAMPINA GRANDE DO SUL",195,1090,"COLÉGIO ESTADUAL IVAN FERREIRA DO AMARAL FILHO","AV ALDERICO BANDEIRA DE LIMA, 211","JARDIM PAULISTA",83430000,12,"Rua Alderico Bandeira de Lima",211,"Campina Grande do Sul",83430000,"Campina Grande do Sul",here_geocoder,-25.3637825,-49.0935522,0,2,1,0.50943396226415
186,747721951104,PR,74772,"CAMPINA GRANDE DO SUL",195,1104,"ESCOLA MUNICIPAL HUMBERTO DE ALENCAR CASTELO BRANCO","BR 116, KM 38 SN - CAPIVARI GRANDE -  ZONA RURAL","CAPIVARI GRANDE",83430000,3,"BR-116 38",38,"Campina Grande do Sul",83430000,,arcgis_online,-25.150401,-48.859371,0,2,1,0.1551724137931
187,747721951112,PR,74772,"CAMPINA GRANDE DO SUL",195,1112,"ESCOLA MUNICIPAL ULISSES GUIMARAES - CAIC - SUPERIOR","RUA CELESTINO FERRARINI 427 - ZONA URBANA","JARDIM PAULISTA",83430000,12,"Rua Celestino Ferrarini",427,"Campina Grande do Sul",83430000,"Campina Grande do Sul",here_geocoder,-25.3565683,-49.1105237,3.6298857072976E-5,4,2,0.41818181818182
188,747721951120,PR,74772,"CAMPINA GRANDE DO SUL",195,1120,"ESCOLA MUNICIPAL ANNA FERREIRA DA COSTA","PR 506 ROD. DO CAQUI, 3420",ARACATUBA,83430000,6,"Rodovia do Caqui",,"Campina Grande do Sul",83430000,,here_geocoder,-25.32561,-49.07842,0,4,1,0.28571428571429
189,747721951139,PR,74772,"CAMPINA GRANDE DO SUL",195,1139,"ESCOLA MUNICIPAL MARCOS NICOLAU STRAPASSONI","RUA JOSE DE ANDRADE 128","JARDIM SANTA ROSA",83430000,8,"Rua Jorge C. de Andrade",128,"Campina Grande do Sul",83430000,"Campina Grande do Sul",here_geocoder,-25.3366415,-49.0653487,4.8739221292082E-5,3,2,0.36585365853659
190,747721951147,PR,74772,"CAMPINA GRANDE DO SUL",195,1147,"ESCOLA MUNICIPAL AUGUSTO STABEN","RUA JUCELINO KUBITSCHEK DE OLIVEIRA, 791","JARDIM PAULISTA",83430000,12,"Rua Gilberto M. de Oliveira",,"Campina Grande do Sul",83430000,"Campina Grande do Sul",here_geocoder,-25.33398,-49.06608,0,2,1,0.32727272727273
191,747721951155,PR,74772,"CAMPINA GRANDE DO SUL",195,1155,"ESCOLA RURAL MUNICIPAL SANTA LETICIA","ESTRADA PRINCIPAL, 800","RIBEIRAO GRANDE II",83430000,2,"Rua Lucídio Florêncio Ribeiro 800",800,"Campina Grande do Sul",83430000,,arcgis_online,-25.360102637092,-49.10886074941,0,2,1,0.2
192,747721951163,PR,74772,"CAMPINA GRANDE DO SUL",195,1163,"COLEGIO ESTADUAL CAMPOS SALES","PR 506 KM 08 S/N - JARDIM DA COLINA",CENTRO,83430000,10,PR-506,,"Campina Grande do Sul",83430000,,here_geocoder,-25.32824,-49.0781,0,3,1,0.15
193,748101821015,PR,74810,"CAMPO LARGO",182,1015,"ESCOLA RURAL MUNICIPAL SAO JOAO (DESATIVADA)","RUA PRINCIPAL, SN","COLONIA BALBINO CUNHA",83600000,1
194,748101821031,PR,74810,"CAMPO LARGO",182,1031,"COLEGIO ESTADUAL JOAO XXIII","RODOVIA DO CAFE - BR 277, 3210, KM 114",RONDINHA,83606000,6,"Rodovia do Café",277,"Campo Largo",83607,Rondinha,google_maps,-25.4447053,-49.4997438,0,3,1,0.32558139534884
195,748101821040,PR,74810,"CAMPO LARGO",182,1040,"ESCOLA MUNICIPAL CAETANO MUNHOZ DA ROCHA","RUA SEREIA, 140",RONDINHA,83607310,4,"Estrada Sereia",140,"Campo Largo",83607310,"Campo Largo",here_geocoder,-25.4483247,-49.4811566,0.0014092719760809,1,3,0.30434782608696
196,748101821058,PR,74810,"CAMPO LARGO",182,1058,"ESCOLA MUNICIPAL LUIZ JULIO","RUA MATO GROSSO, SN",CARATUVA,83600970,4,"Rua Mato Grosso",,"Campo Largo",,,here_geocoder,-25.45958,-49.42318,0,5,1,0.55555555555556
197,748101821066,PR,74810,"CAMPO LARGO",182,1066,"ESCOLA MUNICIPAL VEREADOR JOSE ANDREASSA","RUA NOSSA SENHORA APARECIDA, 301",CERCADINHO,83607000,5,"Rua Nossa Senhora da Aparecida",301,"Campo Largo",83608680,Cercadinho,google_maps,-25.4403773,-49.4553639,0,3,1,0.57142857142857
198,748101821082,PR,74810,"CAMPO LARGO",182,1082,"ESCOLA ESTADUAL LUIZ LORENZI (DESATIVADA)","RUA PRINCIPAL, SN","COLONIA REBOUCAS",83600970,1,"Rua Principal de Col Rebouças",,"Campo Largo",81330200,"Colonia Antônio Reboucas",google_maps,-25.4634169,-49.4411139,0,1,1,0.75757575757576
199,748101821090,PR,74810,"CAMPO LARGO",182,1090,"ESCOLA MUNICIPAL PADRE NATAL PIGATTO","RUA MATO GROSSO, 7971",FERRARIA,83609800,10,"Rua Mato Grosso",7970,"Campo Largo",83609800,Ferraria,here_geocoder,-25.4605496,-49.4029083,0.059776420856935,3,3,0.51724137931034
200,748101821090,PR,74810,"CAMPO LARGO",182,1090,"ESCOLA MUNICIPAL PADRE NATAL PIGATTO","RUA MATO GROSSO, 7971","RUA MATO GROSSO, 7971",83609800,1,"Rua Mato Grosso 7971",7971,"Campo Largo",83609800,,arcgis_online,-25.46114004797,-49.404325177013,0.011780846374872,2,2,0.48780487804878
201,748101821104,PR,74810,"CAMPO LARGO",182,1104,"ESCOLA MUNICIPAL DONA FINA","RUA ARAPONGAS, 347","VILA GILCY",83609130,5,"Avenida Arapongas",347,"Campo Largo",83609130,"Vila Gilcy",google_maps,-25.454714,-49.3891725,0,2,1,0.25
202,748101821112,PR,74810,"CAMPO LARGO",182,1112,"ESCOLA MUNICIPAL INTEGRACAO COMUNITARIA","RUA TARUMA, SN, BR 277, KM 104","JARDIM GUARANY",83608440,7,"Rua Tarumã",277,"Campo Largo",83608440,Ferraria,here_geocoder,-25.4323338,-49.408222,0.0090203307860899,2,2,0.21428571428571
203,748101821120,PR,74810,"CAMPO LARGO",182,1120,"ESCOLA ESTADUAL DOM PEDRO II","RUA PRINCIPAL - COLONIA D PEDRO II SN","COLONIA DOM PEDRO II",83608355,1,"Rua Principal de Col Rebouças",,"Campo Largo",81330200,"Colonia Dom Pedro II",google_maps,-25.4634169,-49.4411139,0,2,1,0.36206896551724
204,748101821139,PR,74810,"CAMPO LARGO",182,1139,"ESCOLA ESTADUAL RURAL NOSSA SENHORA DA LUZ (DESATIVADA)","RUA PRINCIPAL, SN",FIGUEIREDO,83600000,1,"Estrada Figueiredo",,"Campo Largo",83601630,"Campo Largo",here_geocoder,-25.42615,-49.44182,0,1,1,0.48148148148148
205,748101821147,PR,74810,"CAMPO LARGO",182,1147,"ESCOLA MUNICIPAL PROFESSORA LENOVI DE ALMEIDA TORRES","ESTRADA DE BATEAS, KM 4",FAZENDINHA,83648000,4,"Estrada de Bateias",,"Campo Largo",83601630,"Campo Largo",here_geocoder,-25.42699,-49.51311,0.0043955137201239,2,2,0.53333333333333
206,748101821155,PR,74810,"CAMPO LARGO",182,1155,"COLEGIO ESTADUAL OTALIPIO PEREIRA DE ANDRADE","ESTRADA DO CERNE, KM29",BATEAS,83648000,11,"Estrada do Cerne",,"Campo Largo",,Bateias,here_geocoder,-25.3674399,-49.47089,0.00012956458292628,1,2,0.57142857142857
207,748101821171,PR,74810,"CAMPO LARGO",182,1171,"ESCOLA MUNICIPAL AUGUSTO PIRES DE PAULA","ESTRADA NAIR FERREIRA LEAL DA TRINDADE, SN","TRES CORREGOS",83642970,6
208,748101821180,PR,74810,"CAMPO LARGO",182,1180,"ESCOLA MUNICIPAL NICOLAU MORAIS DE CASTRO","RUA PRINCIPAL DE PALMITAL DE S SILVESTRE , SN","PALMITAL DE SAO SILVESTRE",83646000,3
209,748101821198,PR,74810,"CAMPO LARGO",182,1198,"ESCOLA RURAL MUNICIPAL LUIZ RIVABEN","RUA CASSEMIRO KARMANN, SN",ITAMBEZINHO,83642970,2
210,748101821198,PR,74810,"CAMPO LARGO",182,1198,"ESCOLA RURAL MUNICIPAL LUIZ RIVABEN","RUA CASSEMIRO KARMANN, SN","RUA CASSEMIRO KARMANN, SN",83642970,1
211,748101821236,PR,74810,"CAMPO LARGO",182,1236,"ESCOLA RURAL ESTADUAL PROFESSORA ADME ARAUJO ANDRADE (DESATIVADA)","ESTRADA PRINCIPAL, SN",FELPUDO,83600000,1
212,748101821252,PR,74810,"CAMPO LARGO",182,1252,"ESCOLA RURAL MUNICIPAL ITAQUI DE CIMA (DESATIVADA)","RUA JOAO BERTOJA, SN","ITAQUI DE CIMA",83601000,2,"Rua João Bertoja",,"Campo Largo",83605750,"Campo Largo",here_geocoder,-25.43925,-49.56985,0,1,1,0.41176470588235
213,748101821260,PR,74810,"CAMPO LARGO",182,1260,"ESCOLA RURAL MUNICIPAL SAO PEDRO","ESTRADA PRINCIPAL DE SÃO PEDRO, AO LADO POSTO SAUDE S PEDRO SN","ESTRADA PRINCIPAL DE SÃO PEDRO, AO LADO POSTO SAUDE S PEDRO SN",83600970,1
214,748101821260,PR,74810,"CAMPO LARGO",182,1260,"ESCOLA RURAL MUNICIPAL SAO PEDRO","ESTRADA PRINCIPAL DE SÃO PEDRO, AO LADO POSTO SAUDE S PEDRO SN","SAO PEDRO",83600970,1
215,748101821279,PR,74810,"CAMPO LARGO",182,1279,"SALAO PAROQUIAL VILA DOM PEDRO II (PARTICULAR)","RUA BRASILEIA SN ZONA RURAL","VILA DOM PEDRO II",83600000,2,"Rua Dom Pedro II",,"Campo Largo",83601160,,arcgis_online,-25.462127616718,-49.528859689892,0,1,1,0.35555555555556
216,748101821287,PR,74810,"CAMPO LARGO",182,1287,"COLÉGIO ESTADUAL PROFESSORA EDITHE","RUA MATO GROSSO, 9255",FERRARIA,83609800,5,"Rua Mato Grosso",9255,"Campo Largo",83609800,Ferraria,here_geocoder,-25.4631749,-49.3928983,2.3497295181413E-5,2,2,0.51724137931034
217,748101821295,PR,74810,"CAMPO LARGO",182,1295,"ESCOLA MUNICIPAL PEDRO KAMINSKI","RUA REINALDO GADENS, SN",BOTIATUVA,83600970,2,"Rua Reinaldo Gadens",,"Campo Largo",83603123,"Campo Largo",here_geocoder,-25.50113,-49.54141,5.5235198662988E-7,1,2,0.59375
218,748101821295,PR,74810,"CAMPO LARGO",182,1295,"ESCOLA MUNICIPAL PEDRO KAMINSKI","RUA REINALDO GADENS, SN","RUA REINALDO GADENS, SN",83600970,1,"Rua Reinaldo Gadens",,"Campo Largo",83603123,"Campo Largo",here_geocoder,-25.50113,-49.54141,5.5235198662988E-7,1,2,0.42222222222222
219,748101821309,PR,74810,"CAMPO LARGO",182,1309,"ESCOLA ESTADUAL PROFESSORA GERALDINA DA MOTA","RUA MATO GROSSO, 10300","DONA FINA",83609800,1,"Rua Mato Grosso",10300,"Campo Largo",,,google_maps,-25.4571524,-49.3863868,0,3,1,0.48387096774194
220,7481091015,PR,74810,"CAMPO LARGO",9,1015,"COLÉGIO ESTADUAL CLOTARIO PORTUGAL","RUA RODOLFO CASTAGNOLI, N. 1095",CENTRO,83601080,13,"Rua Rodolfo Castagnoli",1095,"Campo Largo",83601080,"Vila Operaria",google_maps,-25.4534441,-49.5315616,0.0002861533574174,1,3,0.59459459459459
221,7481091023,PR,74810,"CAMPO LARGO",9,1023,"COLÉGIO ESTADUAL MACEDO SOARES","RUA RUI BARBOSA, 1231",CENTRO,83601140,14,"Rua Rui Barbosa",1231,"Campo Largo",83601150,Centro,google_maps,-25.459711,-49.5296764,0.0078505528078109,2,3,0.55555555555556
222,7481091031,PR,74810,"CAMPO LARGO",9,1031,"COLEGIO CENECISTA PRESIDENTE KENNEDY - FACECLA","RUA RUI BARBOSA, N. 541",CENTRO,83601140,15,"Rua Rui Barbosa",541,"Campo Largo",83601140,Centro,google_maps,-25.453786,-49.526957,0.051126966665221,3,2,0.51724137931034
223,7481091040,PR,74810,"CAMPO LARGO",9,1040,"COLÉGIO ESTADUAL PRIMEIRO CENTENARIO","RUA DOM PEDRO II, 2040",CENTRO,83601160,8,"Rua Dom Pedro II",2040,"Campo Largo",83601160,Centro,google_maps,-25.467133,-49.531512,0.00034078324507141,1,3,0.57142857142857
224,7481091058,PR,74810,"CAMPO LARGO",9,1058,"COLÉGIO ESTADUAL SAGRADA FAMILIA / ESCOLA MUNICIPAL ANCHIETA","RUA XV DE NOVEMBRO, 1775",CENTRO,83601030,12,"Rua xv de Novembro",1775,"Campo Largo",83601030,Centro,google_maps,-25.4608864,-49.5253245,0.00029392658036511,2,3,0.6
225,7481091066,PR,74810,"CAMPO LARGO",9,1066,"ERCE-ESCOLA DE INTEGRACAO E RECUPERACAO DA CRIANCA EXCEPCIONAL (MUNIC)","RUA RUI BARBOSA, 848",CENTRO,83601460,3,"Rua Rui Barbosa",848,"Campo Largo",83603,Centro,google_maps,-25.4563408,-49.5285194,0.00038299295358161,1,3,0.57692307692308
226,7481091074,PR,74810,"CAMPO LARGO",9,1074,"ESCOLA MUNICIPAL ALBINA GRIGOLETTI WINHESKI","RUA DR DANTE PORTUGAL CASTAGNOLI, 57",LAMBACK,83602370,3,"Rua Doutor Dante Portugal Castagnoli",57,"Campo Largo",83602370,"Campo Largo",here_geocoder,-25.4631045,-49.5405338,4.776960144885E-5,1,2,0.76595744680851
227,7481091082,PR,74810,"CAMPO LARGO",9,1082,"ESCOLA MUNIC. MONSENHOR IVO ZANLORENZI / COLÉGIO EST. JÚLIO NERONE","AV BOM JESUS , 1316","BOM JESUS",83604390,14,"Avenida Bom Jesus",1316,"Campo Largo",83604390,"Campo Largo",here_geocoder,-25.4539041,-49.5545914,0.00031067296656609,1,3,0.53125
228,7481091090,PR,74810,"CAMPO LARGO",9,1090,"ESCOLA MUNICIPAL DIIÁCONO EDGARD MAROCHI","RUA GENEROSO MARQUES, 1705","VILA BANCARIA",83601050,5,"Rua Generoso Marques",1704,"Campo Largo",83601050,"Campo Largo",here_geocoder,-25.4627275,-49.526848,0.00096081938712425,3,3,0.51282051282051
229,7481091104,PR,74810,"CAMPO LARGO",9,1104,"ESCOLA MUNIC. PROF. ROSÁLIA ANDRADE REMONATO","TRAVESSA ODETE CASSOU MARQUES, 45",FERRARI,83606330,6,"Rua Odete Marques",,"Campo Largo",83606330,"Campo Largo",here_geocoder,-25.44032,-49.52504,0,1,1,0.4
230,7481091112,PR,74810,"CAMPO LARGO",9,1112,"ESCOLA MUNICIPAL SETE DE SETEMBRO","R DR JOSE ANTONIO PUPPI - SN","VILA ELIZABETH",83607190,5,"Rua José Antônio Puppi",,"Campo Largo",83607190,"Campo Largo",here_geocoder,-25.4524,-49.512,2.2815264497067E-6,1,2,0.38297872340426
231,7481091120,PR,74810,"CAMPO LARGO",9,1120,"ESC.MUNIC. JOSE ALEXANDRE SAVIO / COL.EST. JOAO FERREIRA KUSTER","RUA WALDEMAR LEO BRAGA -  340","JARDIM SOCIAL",83606010,6,"Rua Waldemar Leo Braga",340,"Campo Largo",83606010,"Campo Largo",here_geocoder,-25.4413741,-49.546066,0.0020874890669595,1,3,0.55
232,7481091139,PR,74810,"CAMPO LARGO",9,1139,"ESCOLA MUNICIPAL CONSTANTINO MAROCHI","RUA FRITZ E SCHMIDT - ITAQUI  ZONA URBANA 6209",ITAQUI,83604220,5
233,7481091147,PR,74810,"CAMPO LARGO",9,1147,"ESCOLA MUNICIPAL HANS ERNEST SCHMIDT","RUA PARAIBA - SN",ITAQUI,83604300,6,"Rua Paraíba",,"Campo Largo",83604300,"Campo Largo",here_geocoder,-25.46184,-49.56724,1.4344890657979E-5,1,2,0.42857142857143
234,7481091155,PR,74810,"CAMPO LARGO",9,1155,"COLEGIO EST. DJALMA MARINHO / ESC. MUNIC. MARIA JOANA FERREIRA MAROCHI","RUA JOAQUIM CELESTINO FERREIRA, 185","JARDIM ESMERALDA",83604120,11,"Rua Joaquim Celestino Ferreira",205,"Campo Largo",83604120,"Campo Largo",here_geocoder,-25.4694805,-49.5616923,0.0013429123031455,1,3,0.58823529411765
235,7481091163,PR,74810,"CAMPO LARGO",9,1163,"ESC.MUNIC. PRIMEIRO DE MAIO / ESC.EST. DR. LENIRO RIBEIRO BITTENCOURT","R JOANIM STROPARO SN",CENTRO,83601230,7,"Rua Joanim Stroparo",,"Campo Largo",83601630,"Campo Largo",here_geocoder,-25.46934,-49.52536,0,2,1,0.6551724137931
236,7481091171,PR,74810,"CAMPO LARGO",9,1171,"CAIC-CENTRO DE ATENCAO INTEGRAL A CRIANCA E AO ADOLESCENTE (MUNIC.)","R ALCEBIADES GUIMARAES,  S/N","AGUAS CLARAS",83602210,12,"Rua Alcebíades Afonso Guimarães",s/n,"Campo Largo",83602210,"Águas Claras",google_maps,-25.4763699,-49.5501905,0,4,1,0.46341463414634
237,7481091180,PR,74810,"CAMPO LARGO",9,1180,"ESCOLA MUNICIPAL POLICARPO MIRANDA","R JOSE FEDALTO, 110",ITABOA,83605210,6,"Rua José Fedalto",110,"Campo Largo",83605210,"Campo Largo",here_geocoder,-25.4542338,-49.5653745,3.7684747621286E-5,1,2,0.51851851851852
238,7481091198,PR,74810,"CAMPO LARGO",9,1198,"ESCOLA MUNICIPAL JOAO SANTANA","ESTRADA DA BALSA NOVA, 1586","CAMPO DO MEIO",83604140,5,"Estrada Para Balsa Nova",1586,"Campo Largo",83604140,"Campo Largo",here_geocoder,-25.4817853,-49.5759726,0.00011770506795195,2,2,0.45
239,7481091201,PR,74810,"CAMPO LARGO",9,1201,"ESC. MUNIC. 15 DE OUTUBRO / ESC. EST. CASEMIRO KARMAN","RUA NITEROI, 1980","JARDIM RIVABEM II",83605260,6,"Rua Niterói",,"Campo Largo",83605610,"Jardim Rivabem",google_maps,-25.44469,-49.5530949,0.0001724843707274,2,3,0.29411764705882
240,7481091228,PR,74810,"CAMPO LARGO",9,1228,"ESCOLA MUNICIPAL O ATENEU","TRAVESSA IARA, N 721",CENTRO,83601295,5,"Rua Iara",721,"Campo Largo",83601295,Centro,google_maps,-25.4679132,-49.5313605,9.5159676882399E-5,1,3,0.26923076923077
241,7481091236,PR,74810,"CAMPO LARGO",9,1236,"CENTRO DE CONVIVÊNCIA DURVAL WEBER (MUNICIPAL)","ESTRADA COLONIA CRISTINA, 300 (AO LADO DO HORTO MUNICIPAL)","POPULARES NOVA",83602340,2
242,7481091244,PR,74810,"CAMPO LARGO",9,1244,"ESCOLA MUNICIPAL CARLOS DRUMMOND DE ANDRADE","RUA XV DE NOVEMBRO, 3500","BOM JESUS",83600000,3,"Rua Quinze de Novembro",3500,"Campo Largo",83601030,"Campo Largo",here_geocoder,-25.4544266,-49.540437,0.00019121773877706,1,3,0.36363636363636
243,7481091252,PR,74810,"CAMPO LARGO",9,1252,"ESCOLA MUNICIPAL REINO DA LOUCINHA","RUA CENTENÁRIO, 2171",CENTRO,83600000,1,"Rua Centenário",2171,"Campo Largo",83601000,Centro,google_maps,-25.4600009,-49.529297,0.00071741370279943,2,3,0.55555555555556
244,74888481015,PR,74888,"TUNAS DO PARANÁ",48,1015,"ESCOLA MUNICIPAL PROFA. ABGAIL CÂNDIDO KRAZOTA","RUA RUA EROS RUPPEL ABDALA, 05",CENTRO,83480000,7,"Rua Eros Ruppel Abdalla",,"Tunas do Paraná",83480000,"Tunas do Paraná",here_geocoder,-24.9753,-49.0867,0.025273367485779,1,2,0.58333333333333
245,74888481023,PR,74888,"TUNAS DO PARANÁ",48,1023,"ESCOLA RURAL MUNICIPAL MARQUES DE ABRANTES","RUA PRINCIPAL, S/N","COLONIA MARQUES DE ABRANTES",83480000,3,"Rua Delegado Servulo Cesar Santos",,"Tunas do Paraná",83480000,,arcgis_online,-24.97538,-49.08634,0,1,1,0.35555555555556
246,74888481040,PR,74888,"TUNAS DO PARANÁ",48,1040,"ESCOLA RURAL MUNICIPAL JOÃO RAZOTTO SOBRINHO (DESATIVADA)","RUA JOÃO RAZOTO SOBRINHO","OURO FINO",83480000,1
247,74888481058,PR,74888,"TUNAS DO PARANÁ",48,1058,"COLÉGIO ESTADUAL SEVERO FERREIRA RUPPEL","RUA JUVENAL GONÇALVES DOS REIS, 145","VILA INDUSTRIAL (GRANJA)",83480000,6,"Rua Juvenal G dos Reis 145",145,"Tunas do Paraná",83480000,,arcgis_online,-24.977436825969,-49.094228736951,0,1,1,0.43333333333333
248,7494271015,PR,74942,"DOUTOR ULYSSES",7,1015,"IGREJA CATÓLICA DO TURVO","BAIRRO DO TURVO",TURVO,83590000,1
249,7494271023,PR,74942,"DOUTOR ULYSSES",7,1023,"ESCOLA RURAL MUNICIPAL BARRA DO TEIXEIRA","ESTRADA DO TURVO","BARRA DO TEIXEIRA",83590000,1
250,7494271031,PR,74942,"DOUTOR ULYSSES",7,1031,"ESCOLA RURAL MUNICIPAL DO CARAGUATA","ESTRADA CARAGUATA",CARAGUATA,83590000,2
251,7494271040,PR,74942,"DOUTOR ULYSSES",7,1040,"UNIDADE BÁSICA DE SAÚDE VEREADOR MIGUEL GELIET","ESTRADA DO SETE QUEDAS","SETE QUEDAS DO GILIET",83590000,2
252,7494271058,PR,74942,"DOUTOR ULYSSES",7,1058,"ESCOLA RURAL MUNICIPAL DA FIGUEIRA","ESTRADA DA FIGUEIRA","BAIRRO DA FIGUEIRA",83590000,1,"Rua Ariel Figueira",,"Doutor Ulysses",83590000,,here_geocoder,-24.56546,-49.41321,0.042223918029586,1,2,0.39473684210526
253,7494271066,PR,74942,"DOUTOR ULYSSES",7,1066,"CRECHE MUNICIPAL JOSÉ BATISTA DE MATOS","RUA ANILDO BERNARDO FOLE, S/N",CERRADO,83590000,2
254,7494271082,PR,74942,"DOUTOR ULYSSES",7,1082,"COLÉGIO ESTADUAL TANCREDO DE ALMEIDA NEVES","RUA JOSÉ ANGELINO DE MATOS, 354",CENTRO,83590000,4,"Rua José Angelino de Matos",,"Doutor Ulysses",83590000,"Doutor Ulysses",here_geocoder,-24.56978,-49.4229399,3.4593300932023E-5,1,3,0.71052631578947
255,7494271090,PR,74942,"DOUTOR ULYSSES",7,1090,"POSTO DE SAÚDE VEREADOR NOBURO FUJIMOTO","BAIRRO DO CORDEIROS","BAIRRO DOS CORDEIROS",83590000,2
256,7494271104,PR,74942,"DOUTOR ULYSSES",7,1104,"ESCOLA RURAL MUNICIPAL BARRA DO TIGRE","ESTRADA RIBEIRÃO DO TIGRE","BARRA DO TIGRE",83590000,1,"Rua José Ribeiro",,"Doutor Ulysses",83590000,,arcgis_online,-24.567091253196,-49.421665234175,0,1,1,0.21951219512195
257,7494271112,PR,74942,"DOUTOR ULYSSES",7,1112,"ESCOLA RURAL MUNICIPAL ADERBAL BRAINE","ESTRADA CABECEIRA DO TIGRE","CABECEIRA DO TIGRE",83590000,1
258,7494271422,PR,74942,"DOUTOR ULYSSES",7,1422,"ESCOLA RURAL MUNICIPAL BAIRRO DOS MELOS","ESTRADA DOS MELOS","BAIRRO DOS MELOS",83590000,1
259,7494271473,PR,74942,"DOUTOR ULYSSES",7,1473,"SINDICATO DOS TRABALHADORES RURAIS DO MUNICÍPIO DE DOUTOR ULYSSES","PR 092 KM 102","BAIRRO ALTO DA PR 092",83570000,1,PR-092,,"Doutor Ulysses",83590000,,here_geocoder,-24.57429,-49.42947,0.00034567227809327,1,2,0.17142857142857
260,7501971015,PR,75019,"CERRO AZUL",7,1015,"ESCOLA MUNICIPAL FLORENTINA DE ARAÚJO","PRAÇA MONSENHOR CELSO, 269",CENTRO,83570000,6,"Praça Monsenhor Celso",269,"Cerro Azul",83570000,,google_maps,-24.8267318,-49.2621259,0,1,1,0.59375
261,7501971023,PR,75019,"CERRO AZUL",7,1023,"COLÉGIO ESTADUAL PRINCESA ISABEL","RUA ROMARIO MARTINS, 120",CENTRO,83570000,15,"Rua Romário Martins",120,"Cerro Azul",83570000,"Cerro Azul",here_geocoder,-24.8255651,-49.2631694,0.0012061352446556,1,3,0.56666666666667
262,7501971058,PR,75019,"CERRO AZUL",7,1058,"ESCOLA RURAL MUNICIPAL  LAGEADO GRANDE","RUA PRINCIPAL, S/N","LAGEADO GRANDE",83570000,2,"Travessa Souza",,"Cerro Azul",83570000,,arcgis_online,-24.815132052207,-49.266364160086,0,1,1,0.1875
263,7501971066,PR,75019,"CERRO AZUL",7,1066,"ESCOLA RURAL MUNICIPAL DA BOMBA","RUA PRINCIPAL, SN","BAIRRO DA BOMBA",83570000,2
264,7501971074,PR,75019,"CERRO AZUL",7,1074,"ESCOLA RURAL MUNICIPAL SÃO SEBASTIÃO","RUA PRINCIPAL, S/N","SÃO SEBASTIÃO",83570000,5,"Rua São Sebastião",,"Cerro Azul",83570000,"Cerro Azul",here_geocoder,-24.83067,-49.2630399,6.4480049269216E-7,1,2,0.53125
265,7501971112,PR,75019,"CERRO AZUL",7,1112,"ESCOLA RURAL MUNICIPAL DO LAGEADINHO","RUA PRINCIPAL, S/N",LAGEADINHO,83570000,1,"Travessa Souza",,"Cerro Azul",83570000,,arcgis_online,-24.815132052207,-49.266364160086,0,1,1,0.17857142857143
266,7501971120,PR,75019,"CERRO AZUL",7,1120,"ESCOLA RURAL MUNICIPAL MILTON TEILO","RUA PRINCIPAL, S/N","BARRA DO RIO PONTA GROSSA ACIMA",83570000,1,"Estrada Marginal do Rio Ponta Grossa",,"Cerro Azul",83570000,,arcgis_online,-24.82470390613,-49.265013395913,0,1,1,0.48979591836735
267,7501971139,PR,75019,"CERRO AZUL",7,1139,"ESCOLA RURAL MUNICIPAL  BARRA BONITA I","RUA PRINCIPAL, S/N","BARRA BONITA I",83570000,1,"Travessa Souza",,"Cerro Azul",83570000,,arcgis_online,-24.815132052207,-49.266364160086,0,2,1,0.21875
268,7501971147,PR,75019,"CERRO AZUL",7,1147,"ESCOLA RURAL MUNICIPAL BOI PERDIDO","RUA PRINCIPAL, S/N","BOI PERDIDO",83570000,1,"Travessa Souza",,"Cerro Azul",83570000,,arcgis_online,-24.815132052207,-49.266364160086,0,1,1,0.17241379310345
269,7501971155,PR,75019,"CERRO AZUL",7,1155,"MINI POSTO DE SAÚDE MATO PRETO","MATO PRETO","MATO PRETO",83570000,1
270,7501971171,PR,75019,"CERRO AZUL",7,1171,"ESCOLA RURAL MUNICIPAL BAIRRO DOS ROSAS","RUA PRINCIPAL, S/N","BAIRRO DOS ROSAS",83570000,1,"Travessa Souza",,"Cerro Azul",83570000,,arcgis_online,-24.815132052207,-49.266364160086,0,1,1,0.20588235294118
271,7501971287,PR,75019,"CERRO AZUL",7,1287,"ESCOLA RURAL MUNICIPAL DO RIBEIRÃO DO VEADO","RUA PRINCIPAL, S/N","RIBEIRÃO DO VEADO",83570000,1,"Travessa Souza",,"Cerro Azul",83570000,,arcgis_online,-24.815132052207,-49.266364160086,0,1,1,0.16666666666667
272,7501971295,PR,75019,"CERRO AZUL",7,1295,"ESCOLA RURAL MUNICIPAL ANGELO MOTTIM","RUA PRINCIPAL, S/N","BARRA DAS ESTRELAS",83570000,1,"Travessa Souza",,"Cerro Azul",83570000,,arcgis_online,-24.815132052207,-49.266364160086,0,1,1,0.19444444444444
273,7501971309,PR,75019,"CERRO AZUL",7,1309,"ESCOLA RURAL MUNICIPAL RIBEIRÃO BONITO DO TURVO","RUA PRINCIPAL, S/N","RIBEIRÃO BONITO DO TURVO",83570000,1,"Travessa Souza",,"Cerro Azul",83570000,,arcgis_online,-24.815132052207,-49.266364160086,0,1,1,0.13953488372093
274,7501971325,PR,75019,"CERRO AZUL",7,1325,"ESCOLA RURAL MUNICIPAL DE LAGEADO DA ANTA GORDA","RUA PRINCIPAL, S/N","LAGEADO DA ANTA GORDA",83570000,1,"Travessa Souza",,"Cerro Azul",83570000,,arcgis_online,-24.815132052207,-49.266364160086,0,1,1,0.17948717948718
275,7501971326,PR,75019,"CERRO AZUL",7,1326,"ESCOLA MUNICIPAL GERMANO BESTEL","RUA RIO VERDE, 503","VILA BESTEL",83570000,2,"Rua Rio Verde",503,"Cerro Azul",83570000,"Vila Bestel",google_maps,-24.8317145,-49.2693239,0.058440943849003,1,3,0.44827586206897
276,7501971333,PR,75019,"CERRO AZUL",7,1333,"ESCOLA RURAL MUNICIPAL BAIRRO DOS BENTOS","RUA PRINCIPAL, S/N","BAIRRO DOS BENTOS",83570000,1,"Travessa Souza",,"Cerro Azul",83570000,,arcgis_online,-24.815132052207,-49.266364160086,0,1,1,0.17142857142857
277,7501971341,PR,75019,"CERRO AZUL",7,1341,"ESCOLA RURAL MUNICIPAL DOS GUARAIPOS","RUA PRINCIPAL, S/N","BAIRRO DOS GUARAIPOS",83570000,1,"Travessa Souza",,"Cerro Azul",83570000,,arcgis_online,-24.815132052207,-49.266364160086,0,1,1,0.21052631578947
278,7501971368,PR,75019,"CERRO AZUL",7,1368,"ESCOLA RURAL MUNICIPAL DE FREGUESIA","ESTRADA FREGUESIA",FREGUESIA,83570000,1
279,7501971376,PR,75019,"CERRO AZUL",7,1376,"ESCOLA RURAL MUNICIPAL ATHANAGILDO DE SOUZA LAIO","ESTRADA DO QUARTEIRÃO DE BAIXO","QUARTEIRÃO DOS ORFÃOS DE BAIXO",83570000,1
280,7501971384,PR,75019,"CERRO AZUL",7,1384,"ESCOLA RURAL MUNICIPAL RIBEIRÃO BONITO DO CHAPEU","RUA PRINCIPAL, S/N","RIBEIRÃO BONITO DO CHAPEU",83570000,1,"Travessa Souza",,"Cerro Azul",83570000,,arcgis_online,-24.815132052207,-49.266364160086,0,1,1,0.13636363636364
281,7501971392,PR,75019,"CERRO AZUL",7,1392,"ESCOLA RURAL MUNICIPAL BAIRRO DOS CARDOSO","RUA PRINCIPAL, S/N","BAIRRO DOS CARDOSO",83570000,1,"Travessa Souza",,"Cerro Azul",83570000,,arcgis_online,-24.815132052207,-49.266364160086,0,1,1,0.19444444444444
282,7501971406,PR,75019,"CERRO AZUL",7,1406,"ESCOLA RURAL MUNICIPAL DE LAGEADO DA BARRA BONITA","RUA PRINCIPAL, S/N","LAGEADO DA BARRA BONITA",83570000,1,"Travessa Souza",,"Cerro Azul",83570000,,arcgis_online,-24.815132052207,-49.266364160086,0,1,1,0.17073170731707
283,7501971414,PR,75019,"CERRO AZUL",7,1414,"ESCOLA RURAL MUNICIPAL BARRA DO MACUCO","RUA PRINCIPAL, S/N","BARRA DO MACUCO",83570000,1,"Travessa Souza",,"Cerro Azul",83570000,,arcgis_online,-24.815132052207,-49.266364160086,0,1,1,0.21212121212121
284,7501971449,PR,75019,"CERRO AZUL",7,1449,"UNIDADE BÁSICA DE SAÚDE MACUCO","ESTRADA BAIRRO DOS MACUCOS II","BAIRRO DOS MACUCOS II",83570000,1,"Rua Dois",,"Cerro Azul",83570000,,arcgis_online,-24.818424152198,-49.260016748631,0,1,1,0.13725490196078
285,7501971457,PR,75019,"CERRO AZUL",7,1457,"PÁTIO MUNICIPAL DA PREFEITURA DE CERRO AZUL","RUA EXPEDICIONÁRIO PEDRO PAULIN, S/N","VILA ELIANE",83570000,1,"Rua São Francisco",,"Cerro Azul",83570000,,arcgis_online,-24.829875324878,-49.257523835112,0,3,1,0.22916666666667
286,750431871015,PR,75043,PINHAIS,187,1015,"ESCOLA MUNICIPAL DONA MARIA CHALCOSKI","R AMERICA DO SUL, 209",CENTRO,83323370,7,"Rua América do Sul",209,Pinhais,83323370,Centro,google_maps,-25.4419258,-49.1838944,0.020140875156472,1,3,0.55172413793103
287,750431871058,PR,75043,PINHAIS,187,1058,"ESCOLA MUNICIPAL CHAFIC SMAKA","R NILO PECANHA, 76","JARDIM AMELIA",83330170,10,"Rua Nilo Peçanha",76,Pinhais,83330170,"Jardim Amélia",here_geocoder,-25.42913,-49.1619,0.000245406609421,1,2,0.42424242424242
288,750431871074,PR,75043,PINHAIS,187,1074,"COLÉGIO ESTADUAL NEWTON FREIRE MAIA","ESTRADA DA GRACIOSA, 7400 - KM 20","PARQUE DAS NASCENTES",83327055,2,"Estrada da Graciosa",,Pinhais,83327055,"Parque das Nascentes",here_geocoder,-25.38495,-49.13659,8.607489144575E-6,2,2,0.37254901960784
289,750431871082,PR,75043,PINHAIS,187,1082,"CMEI - MARCELINO CHAMPAGNAT","R JOAO MENDES BATISTA, 430","MARIA ANTONIETA",83310050,11,"Rua João Mendes Batista",429,Pinhais,83331050,"Maria Antonieta",here_geocoder,-25.44306,-49.16328,0.0031058805396153,1,2,0.48837209302326
290,750431871104,PR,75043,PINHAIS,187,1104,"ESCOLA ESTADUAL LEOCADIA BRAGA RAMOS","RUA ARISTEU DE CASTRO FERNANDES, 353","MARIA ANTONIETA",83331160,9,"Rua Aristeu de Castro Fernandes",353,Pinhais,83331160,"Maria Antonieta",here_geocoder,-25.4435579,-49.1561667,6.1213978041751E-5,1,2,0.6078431372549
291,750431871112,PR,75043,PINHAIS,187,1112,"ESCOLA ESTADUAL LUARLINDO DOS REIS BORGES","RUA ANTONIO ANDRADE, 87","MARIA ANTONIETA",83331150,3,"Rua Antônio de Andrade",87,Pinhais,83331150,"Maria Antonieta",here_geocoder,-25.43905,-49.1669399,0.00051851791967994,1,2,0.42105263157895
292,750431871139,PR,75043,PINHAIS,187,1139,"ESCOLA MUNICIPAL JOSE BRUNETTI GUGELMIN","RUA MALASIA, 385",PINEVILLE,83320270,7,"Rua Malásia",385,Pinhais,83320270,Pineville,google_maps,-25.4316779,-49.1757614,0.0050989514994643,1,3,0.36
293,750431871147,PR,75043,PINHAIS,187,1147,"CENTRO MUNICIPAL DE EDUCACAO INF. VO MARGARIDA","RUA MARIO MARQUES GUIMARAES, 430",PINEVILLE,83320600,7,"Rua Mário Marques Guimarães",430,Pinhais,83320600,Pineville,here_geocoder,-25.4273022,-49.1771724,0.00019714569087379,1,3,0.5609756097561
294,750431871155,PR,75043,PINHAIS,187,1155,"ESCOLA MUNICIPAL LIRIO JACOMEL","RUA AZALEIA , 144","JARDIM KARLA",83328300,5,"Rua Azaléias",144,Pinhais,83328300,"Jardim Karla",here_geocoder,-25.4248427,-49.1516556,5.7995255947928E-5,1,2,0.35714285714286
295,750431871163,PR,75043,PINHAIS,187,1163,"ESCOLA ESTADUAL PROFESSOR PAULO FREIRE","RUA ADOLFO G. MUHLMANN, 81","JARDIM CLAUDIA",83326550,11,"Rua Adolfo Muhlmann",81,Pinhais,83326550,"Jardim Claudia",here_geocoder,-25.3999946,-49.1814002,0.022093061856378,2,2,0.475
296,750431871171,PR,75043,PINHAIS,187,1171,"ESCOLA MUNICIPAL MARINS DE SOUZA SANTOS","AV JURITI, 168","JARDIM CLAUDIA",83326500,9,"Avenida Juriti",168,Pinhais,83326500,"Jardim Claudia",google_maps,-25.4025963,-49.1811945,0.0077599554766071,1,3,0.42424242424242
297,750431871180,PR,75043,PINHAIS,187,1180,"ESCOLA ESTADUAL OTTILIA HOMERO DA SILVA","RUA ARTHUR BERNARDES, 321","JARDIM AMELIA",83330080,9,"Rua Artur Bernardes",321,Pinhais,83330080,"Jardim Amélia",here_geocoder,-25.4297045,-49.1553229,3.9785085737431E-5,1,2,0.5
298,750431871198,PR,75043,PINHAIS,187,1198,"ESCOLA ESTADUAL AMYNTAS DE BARROS","RUA SALGADO FILHO 1371",PINEVILLE,83320340,8,"Rua Salgado Filho",1371,Pinhais,83320,Pineville,google_maps,-25.4306279,-49.1783532,0.69169255877189,2,3,0.53125
299,750431871228,PR,75043,PINHAIS,187,1228,"ESCOLA MUNICIPAL MARIA CAPPELLARI","RUA AUGUSTO TREVISAN, 176","MARIA ANTONIETA",83331020,5,"Rua Augusto Trevisan",176,Pinhais,83331020,"Maria Antonieta",here_geocoder,-25.44202,-49.15832,0.00046201397352561,1,2,0.5
300,750431871236,PR,75043,PINHAIS,187,1236,"ESCOLA MUNICIPAL FELIPE ZENI","RUA CORBELIA, 329","ALTO TARUMA",83325370,7,"Rua Corbélia",329,Pinhais,83325260,"Alto Tarumã",google_maps,-25.4176883,-49.1810118,0.037636686676979,2,2,0.35714285714286
301,750431871244,PR,75043,PINHAIS,187,1244,"ESCOLA ESTADUAL WALDE ROSI GALVAO","RUA AZALEIA, 3226","JARDIM KARLA",83328300,5,"Rua Azaléias",3226,Pinhais,83329020,"Jardim Karla",here_geocoder,-25.4189,-49.15162,0.012649409010477,1,2,0.3448275862069
302,750431871252,PR,75043,PINHAIS,187,1252,"ESCOLA MUNICIPAL ODILE CHARLOTTE BRUINJE","RUA LUIZ VASSELAI, 224","JARDIM CLAUDIA",83326560,7,"Rua Luís Vasselai",224,Pinhais,83326560,"Jardim Claudia",google_maps,-25.3995129,-49.1798348,0.0015693914627738,1,3,0.38888888888889
303,750431881015,PR,75043,PINHAIS,188,1015,"COLÉGIO ESTADUAL HUMBERTO DE ALENCAR CASTELO BRANCO","RUA RIO PIQUIRI, 160",WEISSOPOLIS,83322010,10,"Rua Rio Piquiri",160,Pinhais,83322010,Weissópolis,google_maps,-25.4502242,-49.1850692,0.0034889539851411,1,3,0.48387096774194
304,750431881023,PR,75043,PINHAIS,188,1023,"COLÉGIO ESTADUAL SEMIRAMIS DE BARROS BRAGA","RUA INAJA, 150","VILA EMILIANO PERNETA",83324050,5,"Rua Inajá",150,Pinhais,83324050,Centro,google_maps,-25.4294951,-49.1891845,0.00021689756432723,2,3,0.22857142857143
305,750431881058,PR,75043,PINHAIS,188,1058,"COLÉGIO ESTADUAL DEPUTADO ARNALDO FAIVRO BUSATO","RUA 15 DE OUTUBRO, 525",CENTRO,83323040,10,"Rua Quinze de Outubro",525,Pinhais,83323040,Centro,google_maps,-25.438279,-49.191393,0.059367425683477,2,3,0.39285714285714
306,750431881066,PR,75043,PINHAIS,188,1066,"ESCOLA MUNICIPAL CLEMENTINA CRUZ","RUA GUILHERME WEISS, 597","ESTANCIA PINHAIS",83323200,8,"Rua Guilherme Weiss",597,Pinhais,83323200,"Estância Pinhais",google_maps,-25.4367122,-49.2001019,0.00060284538825626,1,3,0.475
307,750431881104,PR,75043,PINHAIS,188,1104,"COLÉGIO ESTADUAL TENENTE SPRENGER","RUA ISAAC VICTOR PEREIRA, 15",ATUBA,83326200,6,"Rua Isaac Victor Pereira",15,Pinhais,83326200,Atuba,here_geocoder,-25.400701,-49.1826893,0.00014799117022559,1,3,0.72727272727273
308,750431881112,PR,75043,PINHAIS,188,1112,"ESCOLA MUNICIPAL 31 DE MARCO","RUA WALDEMAR COSTA LIMA, 86",ATUBA,83326220,5,"Rua Doutor Waldemar da Costa Lima",86,Pinhais,83326220,Atuba,google_maps,-25.3943681,-49.1919173,0.047360793937931,1,3,0.40625
309,750431881120,PR,75043,PINHAIS,188,1120,"ESCOLA MUNICIPAL JOÃO LEOPOLDO JACOMEL","RUA RIO PARANA, 518",WEISSOPOLIS,83322000,7,"Rua Rio Paraná",518,Pinhais,83322000,Weissópolis,google_maps,-25.4540872,-49.1854084,0.00010580663336481,1,3,0.43333333333333
310,750431881163,PR,75043,PINHAIS,188,1163,"ESCOLA MUNICIPAL SEVERINO MASSIGNAN","RUA RIO SOLIMOES, 707",WEISSOPOLIS,83322150,9,"Rua Rio Solimões",707,Pinhais,83322150,Weissópolis,google_maps,-25.4567326,-49.1831792,0.00044866690241073,1,3,0.46875
311,750431881236,PR,75043,PINHAIS,188,1236,"ESCOLA MUNICIPAL ANTÔNIO ALCEU ZIELONKA","RUA TIBURCIO GOMES DE OLIVEIRA, 3",ATUBA,83326195,3,"Rua Tibúrcio Gomes de Oliveira",3,Pinhais,83326195,Atuba,google_maps,-25.4003273,-49.1928172,0.00025408013848896,1,3,0.73684210526316
312,750431881244,PR,75043,PINHAIS,188,1244,"ESCOLA MUNICIPAL FREI EGIDIO CARLOTTO","RUA CRESCENCIO BATISTA, 6151",ATUBA,83326630,2,"Rua Crescêncio Batista",,Pinhais,83326630,"Jardim Claudia",here_geocoder,-25.39567,-49.17823,1.9977895191357E-6,2,2,0.60606060606061
313,750431881260,PR,75043,PINHAIS,188,1260,"ESCOLA MUNICIPAL AROLDO DE FREITAS","RUA PEDRO FANOR, 517","EMILIANO PERNETA",83324425,6,"Rua Pedro Fanor",517,Pinhais,83331180,"Emiliano Perneta",google_maps,-25.4258175,-49.1882801,0.01921957108202,2,3,0.41666666666667
314,750431881309,PR,75043,PINHAIS,188,1309,"ESCOLA MUNICIPAL PROFESSORA THEREZA CORREA MACHADO","RUA RIO IPIRANGA, 212",WEISSOPOLIS,83322320,8,"Rua Rio Ipiranga",212,Pinhais,83322320,Weissópolis,google_maps,-25.461732,-49.186821,0.034362157141155,1,3,0.5
315,750431881317,PR,75043,PINHAIS,188,1317,"COLÉGIO ESTADUAL OSCAR JOSEPH D'PLACIDO E SILVA","RUA RIO PIRAQUARA, 810",WEISSOPOLIS,83322140,7,"Rua Rio Piraquara",810,Pinhais,83322140,Weissópolis,google_maps,-25.4571688,-49.1854875,0.0010220410613937,1,3,0.51515151515152
316,750431881384,PR,75043,PINHAIS,188,1384,"COLÉGIO ESTADUAL PROFESSOR DANIEL ROCHA","RUA NATAL FABRI, 01",ATUBA,83326055,7,"Rua Natal Fabri",01,Pinhais,83326055,Atuba,google_maps,-25.4056304,-49.1884931,0,1,1,0.625
317,750431881406,PR,75043,PINHAIS,188,1406,"COLÉGIO ESTILLO (PARTICULAR)","RUA PEABIRU, 102","EMILIANO PERNETA",83324480,9,"Rua Peabiru",102,Pinhais,83324480,"Emiliano Perneta",google_maps,-25.4182082,-49.1822254,0.0055930537452594,1,3,0.34375
318,750431881473,PR,75043,PINHAIS,188,1473,"CENTRO DE EDUCAÇÃO PROFISSIONAL COMENDADOR UMBERTO SCARPA (PARTICULAR)","AVENIDA AYRTON SENNA DA SILVA, 2650",CENTRO,83323290,4,"Avenida Ayrton Senna da Silva",2650,Pinhais,83320,Pineville,google_maps,-25.4452634,-49.1916375,0.015260976295166,5,2,0.70731707317073
319,750431881546,PR,75043,PINHAIS,188,1546,"ESCOLA ESTADUAL MATHIAS JACOMEL","RUA CLOVIS BEVILAQUA, 457","VARGEM GRANDE",83321110,10,"Rua Clóvis Bevilaqua",457,Pinhais,83321110,"Vargem Grande",here_geocoder,-25.4418924,-49.1729348,2.4938069722842E-5,1,2,0.47368421052632
320,750431881554,PR,75043,PINHAIS,188,1554,"ESCOLA MUNICIPAL GUILHERME CEOLIN","RUA CASSIANO RICARDO, 834","VARGEM GRANDE",83321090,13,"Rua Cassiano Ricardo",834,Pinhais,83321090,"Vargem Grande",here_geocoder,-25.44403,-49.17458,0.00049046949218025,1,2,0.52631578947368
321,751321861015,PR,75132,COLOMBO,186,1015,"EMPRESA BRASILEIRA DE PESQUISA AGROPECUARIA EMBRAPA FLORESTAS-EMBRAPA","BR 476 - ESTRADA DA RIBEIRA KM 111","JARDIM GUARAITUBA",83411000,1,"Estrada da Ribeira",476,Colombo,83411,,google_maps,-25.3132697,-49.1485229,0,2,1,0.36
322,751321861023,PR,75132,COLOMBO,186,1023,"COLEGIO ESTADUAL HELENA KOLODY","RUA MARIA IZABEL TOSIN, 181","JARDIM MONZA",83406330,10,"Rua Maria Izabel Tosin",181,Colombo,83406330,Monza,here_geocoder,-25.3578024,-49.1932996,0.030787250248656,1,3,0.56410256410256
323,751321861031,PR,75132,COLOMBO,186,1031,"ESCOLA MUNICIPAL AGRIPINO JOAO TOSIN","RUA EWALDO KABITSCHKE, 317","VILA ALTO DA CRUZ",83405160,13,"Rua Evaldo Kabitschke",317,Colombo,83405160,"Rio Verde",google_maps,-25.3681867,-49.1933354,0.010628598504725,2,3,0.46511627906977
324,751321861058,PR,75132,COLOMBO,186,1058,"ESCOLA MUNICIPAL PADRE DURVAL SECCHI","RUA GENESIO MORESCHI, 505","JARDIM GUARAITUBA",83410000,21,"Rua Genésio Moreschi",505,Colombo,83410,Guaraituba,google_maps,-25.3544232,-49.1659046,0.05457983030592,2,3,0.42857142857143
325,751321861066,PR,75132,COLOMBO,186,1066,"ESCOLA MUNICIPAL ANGELO FALAVINHA DALPRÁ","RUA HÉLIO DALPRÁ, 353","VILA AUGUSTA",83407400,7,"Rua Hélio Dalprá",353,Colombo,83407400,Guaraituba,here_geocoder,-25.3486514,-49.176701,3.5660768980928E-5,1,2,0.51428571428571
326,751321861074,PR,75132,COLOMBO,186,1074,"ESCOLA MUNICIPAL JOHN KENNEDY","TRAVESSA SÃO PAULO, 141","VILA GUARACI",83404270,13,"Travessa São Paulo",141,Colombo,83404270,"Campo Pequeno",google_maps,-25.3743222,-49.202068,5.9499141354142E-5,1,3,0.45714285714286
327,751321861082,PR,75132,COLOMBO,186,1082,"FACULDADE EDUCACIONAL DE COLOMBO - FAEC","ESTRADA DA RIBEIRA, 270","ALTO MARACANA",83405030,19,"Estrada da Ribeira",270,Colombo,83405,"Vila Alto da Cruz II",google_maps,-25.3677131,-49.1886275,0,3,1,0.5
328,751321861090,PR,75132,COLOMBO,186,1090,"ESCOLA MUNICIPAL MONTEIRO LOBATO","AVENIDA ALLAN KARDEC, 271","JARDIM CAMPO ALTO",83408090,10,"Avenida Allan Kardec",271,Colombo,83408090,Atuba,here_geocoder,-25.3789203,-49.1866305,2.6767631535066E-5,1,2,0.47619047619048
329,751321861104,PR,75132,COLOMBO,186,1104,"ESCOLA MUNICIPAL NOSSA SENHORA DE FATIMA","RUA SAO PEDRO, 1161","JARDIM NOSSA SENHORA DE FATIMA",83405000,10,"Rua São Pedro",1161,Colombo,83405040,Fatima,google_maps,-25.3613441,-49.1861928,0.0017054828053574,1,3,0.22448979591837
330,751321861112,PR,75132,COLOMBO,186,1112,"COLÉGIO ESTADUAL VEREADOR RAULINO COSTACURTA","RUA OSWALDO DE ANDRADE, 296","JARDIM MILENA",83409060,6,"Rua Oswald de Andrade",296,Colombo,83409060,Guarani,here_geocoder,-25.3708517,-49.1781413,0.024730195151756,1,2,0.525
331,751321861120,PR,75132,COLOMBO,186,1120,"ESCOLA RURAL MUNICIPAL IMBUIAL DA ROSEIRA","ESTRADA DA RIBEIRA, 564 KM 23",IMBUIAL,83411000,3,"Estrada da Ribeira",564,Colombo,83411,Imbuial,google_maps,-25.3137547,-49.1503114,0,3,1,0.5
332,751321861139,PR,75132,COLOMBO,186,1139,"COLÉGIO ESTADUAL RUI BARBOSA","RUA PIETRO CANESTRARO FILHO, 116","JARDIM PARANA",83412100,7,"Rua Ricardo Canestraro",116,Colombo,83412150,Canguiri,here_geocoder,-25.3771921,-49.1268347,0,1,1,0.37777777777778
333,751321861147,PR,75132,COLOMBO,186,1147,"ESCOLA MUNICIPAL SEVERO RIBEIRO DE CAMARGO","RUA LUIZ AUGUSTINHO TREVISAN, 229","SAO DIMAS",83411140,6,"Rua Luís Agostinho Trevisan",229,Colombo,83411140,"São Dimas",google_maps,-25.3389769,-49.1507551,0.00025629005904744,1,3,0.54761904761905
334,751321861155,PR,75132,COLOMBO,186,1155,"COLÉGIO ESTADUAL PROFESSOR PLINIO ALVES MONTEIRO TOURINHO","RUA FLORIPA MULLMANN, 276",ATUBA,83408300,7,"Rua Floripa Mullmann",276,Colombo,83408300,Atuba,here_geocoder,-25.3832262,-49.1891095,7.6647682228137E-5,1,2,0.66666666666667
335,751321861163,PR,75132,COLOMBO,186,1163,"ESCOLA MUNICIPAL SANTA ISABEL","RUA DAS PALMEIRAS, 55","VILA CORDEIRO",83411030,8,"Rua das Palmeiras",55,Colombo,83410,"Vila Cordeiro",google_maps,-25.3467542,-49.1681351,0.012791119051692,1,3,0.5
336,751321861171,PR,75132,COLOMBO,186,1171,"SALAO DA PAROQUIA DE COLONIA FARIA","RUA PRESIDENTE FARIA, 3423","COLONIA FARIA",83411050,3,"Rua Presidente Faria",3423,Colombo,83411050,"Colônia Faria",google_maps,-25.355113,-49.1359009,0.023417649657378,1,3,0.51282051282051
337,751321861180,PR,75132,COLOMBO,186,1180,"ESCOLA MUNICIPAL PARQUE MONTE CASTELO","RUA DAS ORQUIDEAS, 719","PARQUE MONTE CASTELO",83411360,8,"Rua das Orquídeas",719,Colombo,83411360,"São Dimas",google_maps,-25.327195,-49.148003,0.0053309145235196,1,3,0.35714285714286
338,751321861198,PR,75132,COLOMBO,186,1198,"ESCOLA MUNICIPAL DR MANOEL COSTACURTA","TRAVESSA ROMA, 35","PLANTA BOROS",83413280,3,"Travessa Roma",35,Colombo,83413280,Atuba,here_geocoder,-25.389378,-49.180469,4.7754226216423E-5,1,2,0.44827586206897
339,751321861201,PR,75132,COLOMBO,186,1201,"ESCOLA MUNICIPAL JOSE FREDERICO PAULO WEIGERT","RUA DOMINGOS FRACARO, 58","JARDIM BELO RINCAO",83412260,2,"Rua Domingos Fracaro",58,Colombo,83412260,Rincão,google_maps,-25.3617739,-49.1463879,6.2300220432057E-5,3,3,0.47619047619048
340,751321861210,PR,75132,COLOMBO,186,1210,"ESCOLA MUNICIPAL PADRE JONES JOAO TIBOLLA","RUA TEIXEIRA SOARES, 32","JARDIM CRISTINA III",83410510,8,"Rua Teixeira Soares",32,Colombo,83410510,Paloma,google_maps,-25.3558098,-49.158693,5.3776587449108E-5,1,3,0.45238095238095
341,751321861228,PR,75132,COLOMBO,186,1228,"ESCOLA MUNICIPAL HEITOR VILLA LOBOS","RUA ANGELINA CAVALLI, 292","JARDIM ADRIANA",83408477,11,"Rua Angelina Cavalli 292",292,Colombo,83408477,,arcgis_online,-25.366404723536,-49.180582721493,0.00066006737892848,1,2,0.61538461538462
342,751321861236,PR,75132,COLOMBO,186,1236,"ESCOLA MUNICIPAL JOVINO DO ROSARIO","RUA MARECHAL EDUARDO GOMES, 571","VILA MARIA DO ROSARIO",83413180,4,"Rua Marechal Eduardo Gomes 571",571,Colombo,83413180,,arcgis_online,-25.375318232872,-49.160857474193,0.021804193336324,1,3,0.57692307692308
343,751321861244,PR,75132,COLOMBO,186,1244,"ESCOLA MUNICIPAL JARDIM ANA MARIA","RUA ALFREDO PUPPI, 138","VILA ANA MARIA",83413020,9,"Rua Alfredo Puppi",138,Colombo,83413020,Palmital,here_geocoder,-25.3823144,-49.1686031,1.7723587457493E-5,1,2,0.47222222222222
344,751321861252,PR,75132,COLOMBO,186,1252,"ESCOLA MUNICIPAL JARDIM DAS GRACAS","RUA DA GABIROBEIRA, 54","JARDIM DAS GRACAS",83407600,6,"Rua da Gabirobeira",54,Colombo,83407600,"Das Graças",google_maps,-25.3350615,-49.1693608,0,3,1,0.46153846153846
345,751321861260,PR,75132,COLOMBO,186,1260,"ESCOLA MUNICIPAL BARAO DO MAUA","RUA ANAIR BONATO TOSIN, 580","CENTRO INDUSTRIAL MAUA",83413580,11,"Rua Anair Bonato Tosin",,Colombo,83413580,Mauá,here_geocoder,-25.38594,-49.1595299,6.1986387450627E-6,1,2,0.44897959183673
346,751321861279,PR,75132,COLOMBO,186,1279,"COLEGIO ESTADUAL HERACLITO FONTOURA SOBRAL PINTO","RUA LUIZ SEBASTIAO BALDO, 367","JARDIM EUCALIPTOS",83408506,8,"Rua Luiz Sebastião Baldo",367,Colombo,83408506,Maracanã,here_geocoder,-25.3663608,-49.1740256,0.00025450210582406,1,3,0.47826086956522
347,751321861287,PR,75132,COLOMBO,186,1287,"COLEGIO ESTADUAL LUIZ SEBASTIAO BALDO","RUA SALTO DO ITARARE  557","VILA SAO JOSE",83410330,9,"Rua Salto do Itararé",557,Colombo,83410330,Paloma,here_geocoder,-25.3604099,-49.1560191,5.1125201862253E-5,1,3,0.5
348,751321861309,PR,75132,COLOMBO,186,1309,"COLEGIO ESTADUAL ALFREDO CHAVES","RUA BUDAPEST, 8","VILA SANTA CLARA",83405470,7,"Rua Budapeste",8,Colombo,83405470,"Rio Verde",here_geocoder,-25.3692092,-49.1964493,7.3833618303309E-5,1,2,0.38709677419355
349,751321861317,PR,75132,COLOMBO,186,1317,"ESCOLA MUNICIPAL ANTONIO ANDRE JOHNSSON","RUA ALEXANDRE ANDRETTA, 116","JARDIM MONZA",83406280,11,"Rua Alexandre Andretta",116,Colombo,83406280,Monza,here_geocoder,-25.3561425,-49.1908111,0.00019069344944939,1,3,0.56410256410256
350,751321861325,PR,75132,COLOMBO,186,1325,"ESCOLA MUNICIPAL ANTONIO CAVASSIN","RUA GRACILIANO RAMOS, 753","JARDIM MILENA",83409350,9,"Rua Graciliano Ramos",753,Colombo,83409350,Guarani,here_geocoder,-25.3722584,-49.1791866,5.5149272945506E-5,1,2,0.52631578947368
351,751321861333,PR,75132,COLOMBO,186,1333,"ESCOLA MUNICIPAL ARLINDO ANDRETTA","RUA THOMAZ LISS, 07",ATUBA,83408310,11,"Rua Thomaz Liss",,Colombo,83408310,Atuba,here_geocoder,-25.38509,-49.19176,0.038416892381046,1,2,0.625
352,751321861341,PR,75132,COLOMBO,186,1341,"COLÉGIO ESTADUAL GENÉSIO MORESCHI","RUA BOM SUCESSO, 422","JARDIM GUARAITUBA",83410130,11,"Rua Bom Sucesso",422,Colombo,83410130,Guaraituba,google_maps,-25.3535514,-49.1652909,8.7112462555787E-5,1,3,0.40540540540541
353,751321861350,PR,75132,COLOMBO,186,1350,"COLEGIO ESTADUAL VINICIUS DE MORAES","RUA DAS ROSAS, 662","MONTE CASTELO",83411380,8,"Rua das Rosas",662,Colombo,83411380,"São Dimas",here_geocoder,-25.3269919,-49.1493363,0.032183868931309,1,3,0.41935483870968
354,751321861368,PR,75132,COLOMBO,186,1368,"COLEGIO ESTADUAL GUARAITUBA","RUA CARLOS ALBERTO DUGONSKI, 76","JARDIM VIVIANE",83407390,4,"Rua Carlos Alberto Dugonski",76,Colombo,83407390,Guaraituba,google_maps,-25.3471178,-49.1765896,0.0019160792974971,1,3,0.6
355,751321861376,PR,75132,COLOMBO,186,1376,"ESCOLA MUNICIPAL DOUTORA ZILDA ARNS NEUMANN","TRAVESSA LAGO SANTA CLARA, N.279","PARQUE DOS LAGOS",83413392,2,"Travessa Lago Santa Clara",279,Colombo,83413,"Parque dos Lagos",google_maps,-25.3714609,-49.1689454,0,2,1,0.52083333333333
356,75132491015,PR,75132,COLOMBO,49,1015,"COLEGIO PASSIONISTA ROSARIO","RUA DO ROSARIO, 54",CENTRO,83414240,7,"Rua do Rosário",54,Colombo,83414,Centro,google_maps,-25.2920602,-49.2230007,0.013081297300015,2,1,0.5
357,75132491031,PR,75132,COLOMBO,49,1031,"ESCOLA MUNICIPAL ANDRE NADOLNY","RUA ALTEVIR CECCON, 237 - SÃO GABRIEL","JARDIM DAS OLIVEIRAS",83407800,13,"Rua Altevir Ceccon",237,Colombo,83407800,"Jardim das Oliveiras",google_maps,-25.3492255,-49.1997429,0.00018358113227787,1,3,0.32727272727273
358,75132491066,PR,75132,COLOMBO,49,1066,"COLÉGIO ESTADUAL BENTO MUNHOZ DA ROCHA NETTO","RUA RIO ARAGUAIA, 306","JARDIM MOINHO VELHO",83403330,11,"Rua Rio Araguaia",306,Colombo,83403330,"Roça Grande",google_maps,-25.3456443,-49.2084578,0.0015212281702225,1,3,0.4
359,75132491082,PR,75132,COLOMBO,49,1082,"COLÉGIO ESTADUAL DOM JOAO BOSCO","RUA JUSTINIANO ALVES DE SOUZA, 170","JARDIM GUADALAJARA",83402360,8,"Rua Justimiano Alves de Souza",170,Colombo,83402360,"Roça Grande",here_geocoder,-25.3461549,-49.2229406,0.01895572780367,1,3,0.53846153846154
360,75132491104,PR,75132,COLOMBO,49,1104,"ESCOLA MUNICIPAL IRMA MARIA ANTONIETA FARANY","RUA VERGILIO ARCIE, 400",CAPIVARI,83415140,3,"Rua Virgílio Arcie",400,Colombo,83415140,Capivari,here_geocoder,-25.267114,-49.1409564,0.0039959889542983,1,2,0.48387096774194
361,75132491139,PR,75132,COLOMBO,49,1139,"ESCOLA MUNICIPAL JUSCELINO KUBITSCHECK","RUA DA TIRIVA, 28-ZONA URBANA","JARDIM SANTA TEREZA",83401380,5,"Rua da Tiriva",28,Colombo,83401380,Arruda,here_geocoder,-25.3189555,-49.2312121,4.5638268328495E-5,1,2,0.27083333333333
362,75132491171,PR,75132,COLOMBO,49,1171,"ESCOLA RURAL MUNICIPAL JOÃO JOSÉ GASPARIN","RUA AVELINO MOTTIN, 800","POÇO NEGRO",83415115,5,"Rua Avelino Mottin",800,Colombo,83415115,"Ribeirão das Onças",here_geocoder,-25.2553092,-49.1752518,3.7799304328255E-5,1,2,0.52941176470588
363,75132491180,PR,75132,COLOMBO,49,1180,"COLÉGIO ESTADUAL PRESIDENTE ABRAHAN LINCOLN","RUA ZACARIAS DE PAULA XAVIER, 561- CENTRO",CENTRO,83414160,15,"Rua Zacarias de Paula Xavier",561,Colombo,83414160,Centro,google_maps,-25.2914555,-49.227434,0.058061454345155,1,3,0.60869565217391
364,75132491198,PR,75132,COLOMBO,49,1198,"ESCOLA MUNICIPAL PRESIDENTE CASTELO BRANCO","RUA ANDRE NADOLNY, 1235","CAMPO PEQUENO",83403300,10,"Rua André Nadolny",1235,Colombo,83403,"Campo Pequeno",google_maps,-25.3561567,-49.2085815,0.0082587458484291,2,3,0.41666666666667
365,75132491201,PR,75132,COLOMBO,49,1201,"ESCOLA MUNICIPAL GABRIEL D'ANUNCIO STRAPASSON","RUA ALBINO WANK, N. 322","VILA ROSSINI",83403280,18,"Rua Albino Wanke",322,Colombo,83403280,Osasco,here_geocoder,-25.3521303,-49.2100577,0,2,1,0.42857142857143
366,75132491252,PR,75132,COLOMBO,49,1252,"ESCOLA MUNICIPAL CARLOS FONTOURA FALAVINHA","RUA PREFEITO JOAO BATISTA STOCCO, 2884","SAO GABRIEL",83407000,8,"Avenida Prefeito João Batista Stocco",2884,Colombo,83407,Guaraituba,google_maps,-25.342952,-49.1980724,0,2,1,0.48979591836735
367,75132491260,PR,75132,COLOMBO,49,1260,"SALÃO  SANTA GEMMA GALGANI","RUA RAPHAEL FRANCISCO GRECCA,    S/N","SANTA GEMA",83407836,2,"Rua Rafael Francisco Greca",,Colombo,83407836,"Santa Gema",google_maps,-25.3237812,-49.1890162,0,3,1,0.58139534883721
368,75132491287,PR,75132,COLOMBO,49,1287,"ESCOLA MUNICIPAL CRISTOVAO COLOMBO","RUA FRANCISCO CAMARGO, 659",CENTRO,83414010,5,"Rua Francisco Camargo",659,Colombo,83414010,Centro,here_geocoder,-25.2922271,-49.2310853,2.2111387168482E-5,1,2,0.65625
369,75132491317,PR,75132,COLOMBO,49,1317,"COLÉGIO CENECISTA JOÃO BATISTA LOVATO SOBRINHO","RUA VENANCIO TREVISAN, 812",CENTRO,83414020,6,"Rua Venâncio Trevisan",812,Colombo,83414020,Centro,here_geocoder,-25.2934345,-49.2317093,4.177296380868E-5,1,2,0.59375
370,75132491325,PR,75132,COLOMBO,49,1325,"ESCOLA MUNICIPAL ELVIRA NODARI ALBERTI","TRAVESSA MILTON TOSIN, S/N - JARDIM ARAPONGAS","JARDIM ARAPONGAS",83402420,6
371,75132491333,PR,75132,COLOMBO,49,1333,"ESCOLA MUNICIPAL JARDIM GUARUJA","RUA JOSEFA TOMACHESKI, 95 - JARDIM GUARUJÁ","JARDIM GUARUJA",83407290,4,"Rua Josefa Tomacheski",95,Colombo,83407290,"São Gabriel",here_geocoder,-25.3409286,-49.1803215,0.0010031917769174,2,3,0.38181818181818
372,75132491341,PR,75132,COLOMBO,49,1341,"CAIC- ESCOLA MUNICIPAL PEDRO VIRIATO PARIGOT DE SOUZA","RUA ANTONIO FRANCISCO SCROK, 39 - VL. VALE VERDE","VILA VALE VERDE",83406210,7,"Rua Antônio Francisco Scrok",39,Colombo,83406050,"São Gabriel",here_geocoder,-25.3482769,-49.1888909,5.9886216154563E-5,2,2,0.40983606557377
373,75132491350,PR,75132,COLOMBO,49,1350,"ESCOLA MUNICIPAL JARDIM DAS FLORES","RUA JOSE MILANI, Nº 105","JARDIM DAS FLORES",83402050,3,"Rua José Milani",105,Colombo,83402050,"Roça Grande",google_maps,-25.360018,-49.220362,0.00028076375116117,1,3,0.31707317073171
374,75132491368,PR,75132,COLOMBO,49,1368,"ESCOLA MUNICIPAL SANTA FE","RUA PEDRO JARDEVESKI, 212 - JD. SANTA FÉ","JARDIM SANTA FE",83403520,2,"Rua Pedro Jardeveski",212,Colombo,83403520,"São Gabriel",here_geocoder,-25.3351064,-49.2081394,0.00067398124505976,1,3,0.37037037037037
375,75132491376,PR,75132,COLOMBO,49,1376,"ESCOLA MUNICIPAL ISOLINA CECCON","RUA DO SABIÁ, 618 - JARDIM ANA ROSA","JARDIM ANA ROSA",83401030,4,"Rua do Sabiá",618,Colombo,83401030,Arruda,here_geocoder,-25.3254609,-49.2350313,3.4946656640883E-5,1,2,0.26530612244898
376,75132491384,PR,75132,COLOMBO,49,1384,"ESCOLA MUNICIPAL VITORIO MANOEL FRANCESCHI","RUA ANTONIO CZOCHER ,207","ROCA GRANDE",83402370,5,"Rua Antônio Czocher",207,Colombo,83402370,"Roça Grande",google_maps,-25.3474343,-49.2241219,0.0075329767568758,1,3,0.48571428571429
377,75132491392,PR,75132,COLOMBO,49,1392,"COLÉGIO ESTADUAL TANCREDO DE ALMEIDA NEVES","RUA DA TIRIVA 88","JARDIM SANTA TEREZA",83401380,6,"Rua da Tiriva",88,Colombo,83401380,Arruda,here_geocoder,-25.3184178,-49.2308615,7.7557599836672E-5,1,2,0.36111111111111
378,75132491406,PR,75132,COLOMBO,49,1406,"COLÉGIO ESTADUAL JOÃO RIBEIRO DE CAMARGO","PREFEITO JOÃO BATISTA STOCCO 2714","SAO GABRIEL",83407000,8,"Avenida Prefeito João Batista Stocco",2714,Colombo,83407,Guaraituba,google_maps,-25.342952,-49.1980724,0.00032510721297819,1,3,0.45652173913043
379,752051711015,PR,75205,"CAMPO MAGRO",171,1015,"ESCOLA ESTADUAL DIVINA PASTORA","ESTRADA DO CERNE  KM 19, SN",CENTRO,83535000,7,"Estrada do Cerne",,"Campo Magro",83535000,,here_geocoder,-25.37184,-49.44231,0,4,1,0.5
380,752051711023,PR,75205,"CAMPO MAGRO",171,1023,"ESCOLA ESTADUAL PROFESSORA IRIA BORGES DE MACEDO","RUA SILVESTRE JAREK, 138",CENTRO,83535000,6,"Rua Silvestre Jarek",138,"Campo Magro",83535000,"Campo Magro",here_geocoder,-25.3708783,-49.4505614,4.1870076967566E-5,1,2,0.63333333333333
381,752051711040,PR,75205,"CAMPO MAGRO",171,1040,"ESCOLA RURAL MUNICIPAL CAMPO NOVO","ESTRADA DO JURIQUI, SN","CAMPO NOVO",83535000,2,"Est Municipal",,"Campo Magro",83535,,arcgis_online,-25.379341742304,-49.450391871097,0,1,1,0.25
382,752051711058,PR,75205,"CAMPO MAGRO",171,1058,"UNIDADE DE SAUDE RURAL TERRA BOA","RUA JOÃO JACOB MANFRON NETO, 25.970","TERRA BOA",83535000,1,"Rua Ângelo Manfron",,"Campo Magro",83535000,"Campo Magro",here_geocoder,-25.36546,-49.43665,0.0013697641244936,1,2,0.31111111111111
383,752051711066,PR,75205,"CAMPO MAGRO",171,1066,"ESCOLA RURAL MUNICIPAL PROFESSOR ALEXANDRE BUENO FERREIRA","EST FREGUESIA DO CERRO NEGRO - KM 50,  SN","FREGUESIA DOS LARAS",83535000,1
384,752051711074,PR,75205,"CAMPO MAGRO",171,1074,"LOCALIDADE RURAL DO OURO FINO","EST PRINCIPAL OURO FINO - ZONA RURAL SN","OURO FINO",83535000,1
385,752051711082,PR,75205,"CAMPO MAGRO",171,1082,"ESCOLA MUNICIPAL JOSE VALENGA","ESTRADA DO CERNE KM 15 ,  SN",CENTRO,83535000,4,"Estrada do Cerne",,"Campo Magro",83535000,,here_geocoder,-25.37184,-49.44231,0,4,1,0.5
386,752051711090,PR,75205,"CAMPO MAGRO",171,1090,"ESCOLA MUNICIPAL BOM PASTOR","RUA SIQUEIRA CAMPOS -   SN","JARDIM BOM PASTOR",83535000,4
387,752051711104,PR,75205,"CAMPO MAGRO",171,1104,"LOCALIDADE RURAL CONCEICAO DOS TULIOS","EST PRINCIPAL DA CONCEICAO DOS TULIOS SN","CONCEIÇÃO DOS TULIOS",83535000,1
388,752051711112,PR,75205,"CAMPO MAGRO",171,1112,"LOCALIDADE RURAL CONCEICAO DA MEIA LUA","EST PRINCIPAL DA MEIA LUA - ZONA RURAL,  SN","CONCEIÇÃO DA MEIA LUA",83535000,1
389,752051711120,PR,75205,"CAMPO MAGRO",171,1120,"UNIDADE DE SAUDE RURAL CONCEICAO DOS CORREAS","EST PRINCIPAL CONCEÇÃO DOS CORREAS, SN","CONCEIÇÃO DOS CORREAS",83535000,1
390,752051711155,PR,75205,"CAMPO MAGRO",171,1155,"ESCOLA ESTADUAL JARDIM BOA VISTA","RUA GIRASSOIS, 160","JARDIM BOA VISTA",83535000,8,"Rua Girassois",,"Campo Magro",83535000,"Campo Magro",here_geocoder,-25.37652,-49.35999,0.0037089703125138,1,2,0.38235294117647
391,752051711163,PR,75205,"CAMPO MAGRO",171,1163,"ESCOLA MUNICIPAL JOAO MENEGUSSO FILHO","RUA MARANHÃO , 795","JARDIM CECILIA",83535000,6,"Rua Maranhão",,"Campo Magro",83535000,"Campo Magro",here_geocoder,-25.38173,-49.36612,0.00011994504367533,1,2,0.40625
392,752051711171,PR,75205,"CAMPO MAGRO",171,1171,"ESCOLA MUNICIPAL PROFESSORA MERCEDES MARQUES DOS SANTOS","EST PRINCIPAL DA CONCEICAO -   SN",RETIRO,83535000,2,"Rua Nossa Senhora da Conceicao",,"Campo Magro",83535000,,arcgis_online,-25.3667835,-49.42450575,0,1,1,0.375
393,752051711198,PR,75205,"CAMPO MAGRO",171,1198,"ESCOLA MUNICIPAL JARDIM PIONEIRO","RUA RANCHO ALEGRE, 302","JARDIM PIONEIRO",83535000,4,"Avenida Rancho Alegre",,"Campo Magro",83535000,,here_geocoder,-25.37587,-49.38537,0.00051249999985426,1,2,0.2972972972973
394,752051711201,PR,75205,"CAMPO MAGRO",171,1201,"ESCOLA MUNICIPAL PALMAS","RUA GIRASSOIS, SN","JARDIM BOA VISTA",83535000,7,"Rua Girassois",,"Campo Magro",83535000,"Campo Magro",here_geocoder,-25.37652,-49.35999,0.0037089703125138,1,2,0.39393939393939
395,75213101015,PR,75213,CONTENDA,10,1015,"ESCOLA MUNICIPAL JOÃO FRANCO","AVENIDA JOÃO FRANCO, 442",CENTRO,83730000,9,"Avenida João Franco",442,Contenda,83730000,Contenda,here_geocoder,-25.6783431,-49.5367152,3.1198697762374E-5,4,2,0.64516129032258
396,75213101023,PR,75213,CONTENDA,10,1023,"ESCOLA RURAL MUNICIPAL NOSSA SENHORA DAS GRACAS","AVENIDA JOSE OPACINSKI, SN, CATANDUVAS DO SUL, ZONRA RURAL","CATANDUVAS DO SUL",83730000,4,"Estrada Para Catanduvas do Sul",,Contenda,83730000,,arcgis_online,-25.702485874533,-49.511284507908,0,3,1,0.36986301369863
397,75213101031,PR,75213,CONTENDA,10,1031,"ESCOLA RURAL MUNICIPAL SÃO PEDRO (ESCOLA JÁ DESATIVADA)","PRÉDIO DA ESCOLA DESATIVADA, SÃO PEDRO, ZONA RURAL","SÃO PEDRO",83730000,2
398,75213101040,PR,75213,CONTENDA,10,1040,"ESCOLA MUNICIPAL PROFESSORA PAULINA URBANIK STABACH","AVENIDA JOSE MOSSON SN, ZONA RURAL",SERRINHA,83730000,3,"Avenida José Mosson",,Contenda,83730000,,here_geocoder,-25.6933,-49.5712,0.00019655500053096,2,2,0.4047619047619
399,75213101066,PR,75213,CONTENDA,10,1066,"ESCOLA RURAL MUNICIPAL SENHOR BOM JESUS","CAMPESTRE, ZONA RURAL",CAMPESTRE,83730000,2
400,75213101090,PR,75213,CONTENDA,10,1090,"COLEGIO ESTADUAL MIGUEL FRANCO FILHO","RUA 14 DE NOVEMBRO, 140",CENTRO,83730000,11,"Rua 14 de Novembro",140,Contenda,83730000,Contenda,here_geocoder,-25.6790211,-49.5268907,0.009080370028528,1,2,0.62068965517241
401,75213101104,PR,75213,CONTENDA,10,1104,"ESCOLA MUNICIPAL VEREADOR ANTONIO BORKOVSKI","RUA JUVÊNCIO DE CAMARGO E SOUZA","LOTEAMENTO SÃO JOÃO",83730000,3,"Rua J Cordeiro de Souza",,Contenda,83730000,,arcgis_online,-25.677576,-49.53866175,0,3,1,0.33962264150943
